"weight"|"lat"|"lon"|"Location"|Create Date|Closed Date|Due Date|CaseType|Case Number                                       
1|29.57443215|-95.51940498|17223 ARTWOOD, HOUSTON TX 77489|2021-02-18 23:09:09.343|2021-02-19 00:34:19.930|2021-02-22 23:09:09.000|Flooding|12454016-101004560388                             
1|29.58523561|-95.20195095|12314 ASTORIA, HOUSTON TX 77089|2021-02-23 23:05:40.023|2021-03-19 16:31:02.050|2021-02-27 23:05:39.000|Flooding|12454252-101004569652                             
1|29.58702662|-95.47112275|Intersection 16400 S POST OAK RD&5480 RIDGEMONT PL|2020-11-27 11:11:34.007|2020-11-27 19:09:19.547|2020-12-01 11:11:33.000|Flooding|12447290-101004420999                             
1|29.58702662|-95.47112275|Intersection 16400 S POST OAK RD&5480 RIDGEMONT PL|2020-12-13 15:13:22.440|2020-12-17 11:57:40.953|2020-12-17 15:13:22.000|Flooding|12448559-101004448047                             
1|29.59036732|-95.19348275|Intersection 12816 ASTORIA BLVD&12100 WESSEX DR|2020-09-22 10:01:22.190|2020-09-22 14:59:19.620|2020-09-26 10:01:21.000|Flooding|12441787-101004284636                             
1|29.5908776|-95.22791018|11014 SAGEMEADOW, HOUSTON TX 77089|2020-07-25 17:23:55.283|2020-07-27 14:04:18.400|2020-07-29 17:23:55.000|Flooding|12435935-101004184813                             
1|29.5917035|-95.22228941|10800 HUGHES, HOUSTON TX 77089|2021-02-15 12:30:48.563|2021-02-15 13:09:31.113|2021-02-19 12:30:48.000|Flooding|12453902-101004544990                             
1|29.59223557|-95.19126901|Intersection 12900 ASTORIA BLVD&14500 GULF FWY|2020-09-22 12:08:16.133|2020-09-24 11:39:19.797|2020-09-26 12:08:15.000|Flooding|12441903-101004284951                             
1|29.59288753|-95.44767108|15821 CLARKE SPRINGS, HOUSTON TX 77053|2021-06-02 19:37:27.827|2021-06-03 06:45:54.963|2021-06-06 19:37:27.000|Flooding|12464429-101004710555                             
1|29.59388686|-95.4670519|15917 POST OAK, HOUSTON TX 77053|2021-05-17 14:45:32.860|2021-05-18 10:53:38.767|2021-05-21 14:45:32.000|Flooding|12461322-101004680127                             
1|29.59396505|-95.44794468|Intersection 15772 CLARKE SPRINGS DR&15700 REDDY LN|2021-05-31 14:04:54.273|2021-05-31 14:26:52.480|2021-06-04 14:04:54.000|Flooding|12464049-101004707274                             
1|29.5947112|-95.44817254|15746 CLARKE SPRINGS, HOUSTON TX 77053|2021-05-26 10:09:33.240|2021-05-27 08:40:48.957|2021-05-30 10:09:33.000|Flooding|12463282-101004701727                             
1|29.59511132|-95.1981149|11810 ALGONQUIN, HOUSTON TX 77089|2020-07-29 00:06:55.800|2020-07-29 03:09:19.007|2020-08-02 00:06:55.000|Flooding|12436323-101004188617                             
1|29.5952588|-95.44770002|15727 CLARKE SPRINGS, HOUSTON TX 77053|2021-05-28 16:48:30.173|2021-06-01 10:13:53.520|2021-06-01 16:48:30.000|Flooding|12463805-101004705608                             
1|29.59550662|-95.46703349|Intersection 15900 S POST OAK RD&5500 W RIDGECREEK DR|2020-11-28 00:14:25.957|2020-11-30 13:59:32.143|2020-12-02 00:14:25.000|Flooding|12447354-101004421581                             
1|29.59563839|-95.44822601|15714 CLARKE SPRINGS, HOUSTON TX 77053|2021-05-30 16:08:02.130|2021-06-01 10:17:53.490|2021-06-03 16:08:01.000|Flooding|12463994-101004706840                             
1|29.59711085|-95.4714631|15802 DANFORD, HOUSTON TX 77053|2020-09-21 21:12:15.077|2020-09-22 20:29:19.343|2020-09-25 21:12:14.000|Flooding|12441630-101004284143                             
1|29.59796853|-95.47070164|5634 IRISH HILL, HOUSTON TX 77053|2020-09-21 21:08:02.993|2020-09-22 10:29:18.653|2020-09-25 21:08:02.000|Flooding|12441629-101004284141                             
1|29.59970865|-95.28641521|Intersection 7700 S SAM HOUSTON PKWY E&11400 TELEPHONE RD|2020-09-22 03:42:09.980|2020-09-22 12:04:19.287|2020-09-26 03:42:09.000|Flooding|12441671-101004284272                             
1|29.60288941|-95.45159547|4811 MACRIDGE, HOUSTON TX 77053|2020-09-08 13:06:20.907|2020-09-08 13:24:18.793|2020-09-12 13:06:20.000|Flooding|12440301-101004268350                             
1|29.60320798|-95.23242164|11402 KIRKHOLLOW, HOUSTON TX 77089|2020-09-22 07:47:32.347|2020-09-22 16:29:19.577|2020-09-26 07:47:32.000|Flooding|12441710-101004284367                             
1|29.60320798|-95.23242164|11402 KIRKHOLLOW, HOUSTON TX 77089|2020-12-31 11:41:41.400|2021-01-01 03:29:20.750|2021-01-04 11:41:41.000|Flooding|12450039-101004465944                             
1|29.60352517|-95.22888111|11535 KIRKHOLLOW, HOUSTON TX 77089|2020-09-22 12:18:17.580|2020-09-23 09:59:19.250|2020-09-26 12:18:17.000|Flooding|12441884-101004284979                             
1|29.60358004|-95.12297173|3923 CINNAMON FERN, HOUSTON TX 77059|2021-02-27 10:01:06.210|2021-03-19 15:49:26.430|2021-03-03 10:01:06.000|Flooding|12454500-101004575067                             
1|29.60372182|-95.21621652|12101 SABO, HOUSTON TX 77089|2020-11-18 16:15:31.237|2020-11-19 08:59:20.237|2020-11-22 16:15:31.000|Flooding|12446841-101004403105                             
1|29.60524328|-95.27392349|8202 COASTWAY, HOUSTON TX 77075|2020-12-31 12:25:01.420|2021-01-01 03:34:19.910|2021-01-04 12:25:01.000|Flooding|12450051-101004466021                             
1|29.60699432|-95.31378315|6250 SCHURMIER, HOUSTON TX 77048|2021-06-07 12:34:13.497|2021-06-07 12:55:06.873|2021-06-11 12:34:13.000|Flooding|12465098-101004715840                             
1|29.60825637|-95.27796953|10902 BALLANTINE, HOUSTON TX 77075|2020-09-22 08:28:40.090|2020-09-22 20:34:19.287|2020-09-26 08:28:39.000|Flooding|12441737-101004284440                             
1|29.60897465|-95.47488451|5870 W FUQUA, HOUSTON TX 77085|2021-04-08 19:00:47.397|2021-04-13 12:39:21.397|2021-04-12 19:00:47.000|Flooding|12457997-101004635032                             
1|29.60936661|-95.43450715|14935 BATHURST, HOUSTON TX 77045|2020-08-12 12:54:41.963|2020-08-18 12:43:45.113|2020-08-16 12:53:00.000|Flooding|12437744-101004206688                             
1|29.61116891|-95.40304303|13501 HOOPER, HOUSTON TX 77047|2020-09-22 12:40:39.943|2020-09-22 20:44:18.890|2020-09-26 12:40:39.000|Flooding|12441899-101004285036                             
1|29.61164812|-95.28561732|Intersection 7700 FUQUA ST&10600 TELEPHONE RD|2020-09-21 15:31:48.477|2020-09-22 09:24:18.890|2020-09-25 15:31:48.000|Flooding|12441575-101004283800                             
1|29.6151318|-95.47827589|6305 OBAN, HOUSTON TX 77085|2021-05-24 15:10:13.143|2021-05-25 09:47:46.670|2021-05-28 15:10:12.000|Flooding|12462740-101004699126                             
1|29.61543009|-95.37481487|3140 ALMEDA GENOA, HOUSTON TX 77047|2021-05-19 13:58:24.697|2021-05-19 14:05:40.467|2021-05-23 13:58:24.000|Flooding|12461840-101004683320                             
1|29.61656137|-95.24167354|9802 FONVILLE, HOUSTON TX 77075|2020-12-31 15:12:17.057|2021-01-04 14:09:20.307|2021-01-04 15:12:16.000|Flooding|12450120-101004466332                             
1|29.61656446|-95.24145547|9806 FONVILLE, HOUSTON TX 77075|2020-12-31 13:52:24.140|2021-01-04 13:54:20.497|2021-01-04 13:52:24.000|Flooding|12450105-101004466210                             
1|29.61699879|-95.39871264|13218 ELAINE, HOUSTON TX 77047|2020-09-21 20:10:32.970|2020-09-22 11:39:19.100|2020-09-25 20:10:32.000|Flooding|12441614-101004284103                             
1|29.6178465|-95.39756085|13117 ELAINE, HOUSTON TX 77047|2020-09-26 11:02:51.253|2020-09-28 08:59:22.250|2020-09-30 11:02:51.000|Flooding|12442630-101004290733                             
1|29.61853372|-95.26911573|8402 WAYFARER, HOUSTON TX 77075|2020-09-22 09:36:15.603|2020-09-22 17:49:19.103|2020-09-26 09:36:15.000|Flooding|12441774-101004284580                             
1|29.61971214|-95.46682039|5607 OAKHAM, HOUSTON TX 77085|2020-09-21 20:33:23.960|2020-09-22 11:54:18.697|2020-09-25 20:33:23.000|Flooding|12441620-101004284124                             
1|29.62137841|-95.40426366|12706 KIEV HILLS, HOUSTON TX 77047|2020-09-21 21:22:19.930|2020-09-22 11:44:19.613|2020-09-25 21:22:19.000|Flooding|12441631-101004284147                             
1|29.62244385|-95.43911026|14125 REGG, HOUSTON TX 77045|2020-09-21 17:24:49.733|2020-09-22 10:44:19.650|2020-09-25 17:24:49.000|Flooding|12441596-101004283978                             
1|29.6225474|-95.3949054|1611 PALCIO REAL, HOUSTON TX 77047|2020-12-17 11:29:18.520|2020-12-17 11:56:17.327|2020-12-21 11:29:18.000|Flooding|12448976-101004452454                             
1|29.62328381|-95.27412525|8113 LANHAM, HOUSTON TX 77075|2020-09-22 09:10:57.893|2020-09-22 15:59:19.063|2020-09-26 09:10:57.000|Flooding|12441759-101004284525                             
1|29.6233268|-95.34180663|12830 ALMEDA CROSSING, HOUSTON TX 77048|2020-09-21 21:37:49.410|2020-09-22 12:54:19.427|2020-09-25 21:37:49.000|Flooding|12441636-101004284160                             
1|29.62373646|-95.27295467|8204 GULICK, HOUSTON TX 77075|2020-12-31 12:41:03.200|2021-01-01 03:49:20.800|2021-01-04 12:41:03.000|Flooding|12450063-101004466058                             
1|29.62409582|-95.33241095|5113 ITIEL, HOUSTON TX 77048|2021-05-24 15:18:01.150|2021-05-24 15:33:46.313|2021-05-28 15:18:00.000|Flooding|12462750-101004699159                             
1|29.62433715|-95.27325793|8205 GULICK, HOUSTON TX 77075|2020-09-22 11:20:18.090|2020-09-22 17:54:19.247|2020-09-26 11:20:17.000|Flooding|12441837-101004284815                             
1|29.62433715|-95.27325793|8205 GULICK, HOUSTON TX 77075|2020-12-31 13:23:03.380|2021-01-05 10:19:20.587|2021-01-04 13:23:03.000|Flooding|12450095-101004466158                             
1|29.62448739|-95.21918951|10929 ALMEDA GENOA, HOUSTON TX 77034|2020-09-29 15:27:13.270|2020-09-30 13:29:22.130|2020-10-03 15:27:13.000|Flooding|12442923-101004294590                             
1|29.62658772|-95.51754412|Intersection 15200 MAIN ST&9052 S SAM HOUSTON PKWY W|2020-09-21 22:02:17.823|2020-09-22 12:29:19.653|2020-09-25 22:02:17.000|Flooding|12441640-101004284171                             
1|29.62727721|-95.39231083|11717 CHANTELOUP, HOUSTON TX 77047|2021-04-13 10:00:51.910|2021-04-13 10:14:21.390|2021-04-17 10:00:51.000|Flooding|12458266-101004639584                             
1|29.62747001|-95.48912027|13734 FIREROCK, HOUSTON TX 77085|2020-12-03 11:22:31.140|2020-12-17 12:08:35.590|2020-12-07 11:22:30.000|Flooding|12447812-101004426973                             
1|29.62849417|-95.44387055|Intersection 4300 BOYNTON DR&13712 WRIGLEY ST|2020-09-22 11:54:34.497|2020-09-22 17:59:18.563|2020-09-26 11:54:34.000|Flooding|12441864-101004284907                             
1|29.63155942|-95.33935546|Intersection 5300 FAIRGREEN LN&11900 MARTIN LUTHER KING BLVD|2020-11-28 08:01:26.667|2020-11-30 06:09:19.337|2020-12-02 07:59:00.000|Flooding|12447362-101004421642                             
1|29.63191607|-95.4501419|Intersection 13400 PLAYER ST&4714 TRAIL LAKE DR|2020-09-22 09:50:35.210|2020-09-22 14:24:18.977|2020-09-26 09:50:34.000|Flooding|12441781-101004284617                             
1|29.63250055|-95.36742553|11800 SCOTT, HOUSTON TX 77047|2020-09-22 11:34:26.543|2020-09-22 19:09:18.817|2020-09-26 11:34:26.000|Flooding|12441848-101004284848                             
1|29.63253373|-95.4491488|4627 KNOTTY OAKS, HOUSTON TX 77045|2021-06-04 15:24:45.233|2021-06-07 10:54:06.917|2021-06-08 15:24:44.000|Flooding|12464832-101004713547                             
1|29.63256841|-95.46775895|5631 COASTAL, HOUSTON TX 77085|2021-02-19 11:03:53.090|2021-02-19 11:29:19.323|2021-02-23 11:03:52.000|Flooding|12454024-101004561053                             
1|29.63326383|-95.35967902|4315 MADDEN, HOUSTON TX 77047|2021-02-16 16:11:33.867|2021-02-16 20:28:31.440|2021-02-20 16:11:33.000|Flooding|101004545919                                      
1|29.63338244|-95.44290741|4311 TIDEWATER, HOUSTON TX 77045|2020-09-21 21:32:51.313|2020-09-22 11:19:18.963|2020-09-25 21:32:51.000|Flooding|12441634-101004284157                             
1|29.63365302|-95.44946732|Intersection 13200 PLAYER ST&4700 TIDEWATER DR|2020-09-22 09:49:24.193|2020-09-22 14:04:19.363|2020-09-26 09:49:23.000|Flooding|12441780-101004284612                             
1|29.63390252|-95.44627743|Intersection 13324 HIRAM CLARKE RD&4500 TIDEWATER DR|2020-09-22 11:51:53.537|2020-09-22 19:19:19.247|2020-09-26 11:51:53.000|Flooding|12441861-101004284900                             
1|29.63433583|-95.45202689|4727 LOTUS, HOUSTON TX 77045|2020-07-26 16:57:14.720|2020-07-27 14:49:18.580|2020-07-30 16:57:14.000|Flooding|12435995-101004185217                             
1|29.63433583|-95.45202689|4727 LOTUS, HOUSTON TX 77045|2020-07-29 14:23:07.523|2020-07-30 14:29:18.740|2020-08-02 14:23:07.000|Flooding|12436430-101004189453                             
1|29.63433583|-95.45202689|4727 LOTUS, HOUSTON TX 77045|2020-08-17 10:46:11.500|2020-08-19 06:16:48.473|2020-08-21 10:46:10.000|Flooding|12438123-101004221746                             
1|29.63433583|-95.45202689|4727 LOTUS, HOUSTON TX 77045|2021-05-01 14:44:32.020|2021-05-03 09:07:37.787|2021-05-05 14:44:31.000|Flooding|12459864-101004661653                             
1|29.63458743|-95.45170923|4719 LOTUS, HOUSTON TX 77045|2021-05-01 15:30:04.233|2021-05-03 09:07:37.753|2021-05-05 15:30:03.000|Flooding|12459868-101004661686                             
1|29.63470541|-95.45154817|4715 LOTUS, HOUSTON TX 77045|2020-08-17 11:48:49.377|2020-08-19 06:16:50.223|2020-08-21 11:48:48.000|Flooding|12438139-101004221909                             
1|29.63483378|-95.45237747|4726 LOTUS, HOUSTON TX 77045|2020-07-29 08:25:52.447|2020-07-29 12:04:18.343|2020-08-02 08:25:52.000|Flooding|12436360-101004188793                             
1|29.63483378|-95.45237747|4726 LOTUS, HOUSTON TX 77045|2021-05-01 16:52:35.773|2021-05-03 09:07:37.770|2021-05-05 16:52:35.000|Flooding|12459872-101004661751                             
1|29.63512542|-95.45189353|4714 LOTUS, HOUSTON TX 77045|2020-09-23 11:11:02.803|2020-09-24 09:04:18.847|2020-09-27 11:11:02.000|Flooding|12442180-101004286435                             
1|29.63518157|-95.24495105|10910 GULF, HOUSTON TX 77075|2020-07-25 17:38:59.230|2020-07-28 09:44:19.057|2020-07-29 17:38:58.000|Flooding|12435940-101004184824                             
1|29.63578215|-95.24375903|Intersection 9700 LEDGE ST&9300 NATHANIEL ST|2021-02-12 09:08:49.177|2021-02-19 12:19:19.030|2021-02-16 09:08:49.000|Flooding|12453785-101004543017                             
1|29.637346|-95.22701971|10437 AMBURSEN, HOUSTON TX 77034|2020-09-22 18:58:50.290|2020-09-23 08:59:19.697|2020-09-26 18:58:49.000|Flooding|12441988-101004285584                             
1|29.637346|-95.22701971|10437 AMBURSEN, HOUSTON TX 77034|2020-12-13 14:02:29.347|2020-12-17 12:01:13.880|2020-12-17 14:02:29.000|Flooding|12448548-101004447993                             
1|29.63836128|-95.38025732|10914 BUFFUM, HOUSTON TX 77051|2020-12-30 02:59:42.473|2020-12-31 10:29:21.187|2021-01-03 02:59:42.000|Flooding|12449917-101004464214                             
1|29.63841584|-95.44434404|4402 BRENTWOOD PARK, HOUSTON TX 77045|2020-12-14 11:33:32.627|2020-12-17 11:35:13.777|2020-12-18 11:33:32.000|Flooding|12448688-101004448851                             
1|29.63866865|-95.40275419|1912 HELVICK, HOUSTON TX 77051|2021-02-02 08:30:48.893|2021-02-02 08:44:21.223|2021-02-06 08:30:48.000|Flooding|12452874-101004511755                             
1|29.64197858|-95.2305954|10319 HINDS, HOUSTON TX 77034|2020-12-31 12:30:24.847|2021-01-01 03:09:20.747|2021-01-04 12:30:24.000|Flooding|12450053-101004466030                             
1|29.64210753|-95.29518526|323 IPSWICH, HOUSTON TX 77061|2021-05-24 15:42:55.430|2021-05-24 15:51:46.277|2021-05-28 15:42:55.000|Flooding|12462779-101004699240                             
1|29.6422089|-95.25945421|8819 BARTON, HOUSTON TX 77075|2020-07-25 16:54:56.850|2020-07-27 13:39:18.340|2020-07-29 16:54:56.000|Flooding|12435929-101004184795                             
1|29.64261944|-95.54411958|9522 RAVENSWORTH, HOUSTON TX 77031|2020-09-22 17:43:01.863|2020-09-23 09:49:18.773|2020-09-26 17:43:01.000|Flooding|12441976-101004285526                             
1|29.645059|-95.54592398|12330 CHESSINGTON, HOUSTON TX 77031|2021-05-24 12:00:21.490|2021-05-24 13:25:46.523|2021-05-28 12:00:21.000|Flooding|12462566-101004698578                             
1|29.64525628|-95.54626359|12322 CHESSINGTON, HOUSTON TX 77031|2021-05-24 14:05:08.577|2021-05-24 14:42:46.300|2021-05-28 14:05:08.000|Flooding|12462679-101004698926                             
1|29.64676058|-95.5379027|12518 WRENTHORPE, HOUSTON TX 77031|2020-10-01 00:06:17.903|2020-10-01 10:49:19.083|2020-10-05 00:06:17.000|Flooding|12443059-101004296509                             
1|29.64799651|-95.22816759|631 SULPHUR, HOUSTON TX 77034|2020-07-23 12:09:35.970|2020-07-23 12:31:38.417|2020-07-27 12:09:35.000|Flooding|101004181914                                      
1|29.64799988|-95.22797474|627 SULPHUR, HOUSTON TX 77034|2020-07-23 12:13:42.393|2020-07-24 08:19:18.897|2020-07-27 12:13:42.000|Flooding|12435635-101004181922                             
1|29.64815002|-95.26478883|8377 MONROE, HOUSTON TX 77061|2020-12-13 23:05:33.550|2020-12-17 11:57:40.313|2020-12-17 23:05:33.000|Flooding|12448600-101004448290                             
1|29.64874702|-95.26537734|8314 MONROE, HOUSTON TX 77061|2020-10-17 00:05:47.100|2020-10-19 08:54:19.440|2020-10-21 00:05:46.000|Flooding|12444527-101004336765                             
1|29.64957429|-95.26714333|Intersection 8300 LARSON ST&8290 W MONROE RD|2020-12-02 18:14:28.260|2020-12-17 12:11:49.107|2020-12-06 18:14:28.000|Flooding|12447754-101004426360                             
1|29.64970854|-95.26395151|8265 MONROE, HOUSTON TX 77061|2020-08-15 14:16:15.577|2020-08-19 06:18:35.960|2020-08-19 14:16:15.000|Flooding|12438011-101004220600                             
1|29.65086735|-95.24615466|Intersection 1300 LASKEY ST&2130 THURMON|2020-12-31 12:50:49.367|2021-01-04 12:34:20.843|2021-01-04 12:50:49.000|Flooding|12450075-101004466081                             
1|29.65088847|-95.50965602|11811 GLADEWOOD, HOUSTON TX 77071|2020-11-27 14:21:48.167|2020-11-30 08:54:18.973|2020-12-01 14:21:47.000|Flooding|12447310-101004421234                             
1|29.6510473|-95.26433726|8620 PANAIR, HOUSTON TX 77061|2020-12-19 22:15:39.543|2020-12-21 05:44:19.897|2020-12-23 22:15:39.000|Flooding|12449186-101004455054                             
1|29.65107707|-95.51144881|11807 STALLION, HOUSTON TX 77071|2020-07-05 22:58:06.763|2020-07-06 09:09:18.730|2020-07-09 22:58:06.000|Flooding|12434015-101004138127                             
1|29.65107707|-95.51144881|11807 STALLION, HOUSTON TX 77071|2021-01-24 13:53:17.917|2021-01-25 10:24:21.670|2021-01-28 13:53:17.000|Flooding|12452080-101004502377                             
1|29.65150625|-95.54398816|9130 WEYMOUTH, HOUSTON TX 77031|2021-05-24 11:49:08.563|2021-05-24 13:39:46.263|2021-05-28 11:49:08.000|Flooding|12462555-101004698548                             
1|29.65250118|-95.51157317|7610 COACHWOOD, HOUSTON TX 77071|2020-07-01 11:54:10.913|2020-07-02 10:19:20.497|2020-07-05 11:54:10.000|Flooding|12433692-101004133787                             
1|29.65250118|-95.51157317|7610 COACHWOOD, HOUSTON TX 77071|2020-07-01 11:56:57.307|2020-07-01 11:57:55.777|2020-07-05 11:56:57.000|Flooding|12433692-101004133794                             
1|29.65457772|-95.35020284|4909 HIGGINS, HOUSTON TX 77033|2021-02-12 13:30:48.720|2021-02-14 16:24:29.077|2021-02-16 13:30:48.000|Flooding|12453803-101004543436                             
1|29.65487781|-95.56750472|10708 BELLFORT, HOUSTON TX 77099|2020-09-21 22:39:52.123|2020-09-22 15:09:19.080|2020-09-25 22:39:51.000|Flooding|12441646-101004284187                             
1|29.65599449|-95.45602202|11221 CLIFFWOOD, HOUSTON TX 77035|2020-07-24 10:03:24.807|2020-07-27 10:09:19.220|2020-07-28 10:03:24.000|Flooding|12435751-101004183157                             
1|29.65599449|-95.45602202|11221 CLIFFWOOD, HOUSTON TX 77035|2020-09-22 22:10:18.510|2020-09-23 09:54:19.230|2020-09-26 22:10:18.000|Flooding|12442023-101004285706                             
1|29.65747902|-95.33461665|5746 HIRONDEL, HOUSTON TX 77033|2020-09-23 11:43:03.690|2020-09-24 13:04:19.513|2020-09-27 11:43:03.000|Flooding|12442188-101004286529                             
1|29.65796334|-95.48513637|5615 SPELLMAN, HOUSTON TX 77096|2021-02-24 23:06:29.840|2021-03-19 15:54:24.513|2021-02-28 23:06:29.000|Flooding|12454324-101004571719                             
1|29.65887836|-95.47581485|11303 CHIMNEY ROCK, HOUSTON TX 77035|2021-02-18 23:08:47.530|2021-02-19 00:34:19.807|2021-02-22 23:08:47.000|Flooding|12454014-101004560377                             
1|29.66003876|-95.49076409|5818 SANFORD, HOUSTON TX 77096|2021-05-24 11:56:29.440|2021-05-24 13:29:46.290|2021-05-28 11:56:29.000|Flooding|12462559-101004698565                             
1|29.66055341|-95.58155731|11502 BROOKLEDGE, HOUSTON TX 77099|2020-09-21 21:31:08.890|2020-09-22 10:34:18.983|2020-09-25 21:31:08.000|Flooding|12441633-101004284156                             
1|29.66115762|-95.51121107|7703 CLARIDGE, HOUSTON TX 77071|2021-02-21 14:28:42.313|2021-02-22 09:39:19.943|2021-02-25 14:28:42.000|Flooding|12454121-101004565048                             
1|29.66178274|-95.56070581|10401 ROCKLEY, HOUSTON TX 77099|2020-09-21 22:55:37.827|2020-09-22 10:59:19.227|2020-09-25 22:55:37.000|Flooding|12441648-101004284197                             
1|29.66272307|-95.46826735|5042 STILLBROOKE, HOUSTON TX 77035|2021-04-15 17:31:29.350|2021-04-20 09:19:22.320|2021-04-19 17:31:29.000|Flooding|12458563-101004643381                             
1|29.66295633|-95.30356671|7185 SIMS, HOUSTON TX 77061|2021-02-23 23:05:44.537|2021-03-19 16:31:02.157|2021-02-27 23:05:44.000|Flooding|12454253-101004569653                             
1|29.66398641|-95.46182597|4841 WILLOWBEND, HOUSTON TX 77035|2021-02-20 13:15:51.707|2021-02-20 13:34:18.937|2021-02-24 13:15:51.000|Flooding|12454073-101004563571                             
1|29.66450147|-95.48423884|5603 STILLBROOKE, HOUSTON TX 77096|2021-06-01 21:35:52.380|2021-06-02 11:34:54.303|2021-06-05 21:35:52.000|Flooding|12464227-101004709009                             
1|29.66592257|-95.54457637|10502 PLAINFIELD, HOUSTON TX 77031|2020-09-22 11:20:31.870|2020-09-22 17:19:18.763|2020-09-26 11:20:31.000|Flooding|12441836-101004284816                             
1|29.66604964|-95.31529082|6319 BELARBOR, HOUSTON TX 77087|2020-09-03 14:23:13.853|2020-09-08 09:29:19.300|2020-09-07 14:21:00.000|Flooding|12439997-101004263916                             
1|29.66619323|-95.35925446|4521 GALESBURG, HOUSTON TX 77051|2020-09-29 09:53:36.103|2020-10-01 12:29:22.020|2020-10-03 09:53:35.000|Flooding|12442850-101004293732                             
1|29.66661865|-95.46721238|10610 ENDICOTT, HOUSTON TX 77035|2020-07-22 16:35:00.230|2020-07-23 15:39:18.750|2020-07-26 16:35:00.000|Flooding|12435548-101004181037                             
1|29.66711631|-95.55412135|10003 FORUM WEST, HOUSTON TX 77036|2021-05-24 15:13:51.147|2021-05-25 10:12:46.823|2021-05-28 15:12:00.000|Flooding|12462744-101004699141                             
1|29.66717698|-95.5219293|8127 TWIN HILLS, HOUSTON TX 77071|2020-08-03 07:16:12.667|2020-08-04 08:49:19.080|2020-08-07 07:16:12.000|Flooding|12436800-101004193824                             
1|29.66788673|-95.48258205|Intersection 10400 ATWELL DR&5600 LYMBAR DR|2020-07-22 12:17:32.520|2020-07-22 15:24:18.693|2020-07-26 12:17:32.000|Flooding|12435488-101004180550                             
1|29.66788953|-95.34733577|5115 PENSDALE, HOUSTON TX 77033|2020-07-27 03:43:43.817|2020-07-27 13:29:18.803|2020-07-31 03:43:43.000|Flooding|12436011-101004185393                             
1|29.6679382|-95.45670916|4703 MCDERMED, HOUSTON TX 77035|2021-02-20 17:01:03.863|2021-02-21 20:54:19.950|2021-02-24 17:01:03.000|Flooding|12454090-101004564016                             
1|29.66813051|-95.48281798|5606 LYMBAR, HOUSTON TX 77096|2020-07-22 12:19:33.693|2020-07-22 15:19:18.473|2020-07-26 12:19:33.000|Flooding|12435492-101004180557                             
1|29.66835874|-95.33507874|5739 NORTHRIDGE, HOUSTON TX 77033|2020-09-22 14:49:34.470|2020-09-23 15:59:18.943|2020-09-26 14:49:34.000|Flooding|12441931-101004285267                             
1|29.66857608|-95.40303595|Intersection 9300 FANNIN ST&2000 HOLMES RD|2020-09-30 10:37:16.787|2020-10-01 11:04:20.423|2020-10-04 10:37:15.000|Flooding|12443005-101004295577                             
1|29.6686274|-95.3481375|8010 JUTLAND, HOUSTON TX 77033|2021-05-24 17:00:27.380|2021-05-25 09:02:46.720|2021-05-28 17:00:27.000|Flooding|12462845-101004699477                             
1|29.66906503|-95.33065506|5939 RIDGEWAY, HOUSTON TX 77033|2020-09-22 08:51:47.000|2020-09-22 14:44:18.887|2020-09-26 08:51:46.000|Flooding|12441749-101004284480                             
1|29.66971863|-95.4874435|5718 WIGTON, HOUSTON TX 77096|2020-07-22 12:48:05.617|2020-07-22 15:54:18.723|2020-07-26 12:48:05.000|Flooding|12435506-101004180650                             
1|29.66972185|-95.48720476|5714 WIGTON, HOUSTON TX 77096|2020-07-20 01:29:55.843|2020-07-20 09:24:18.770|2020-07-24 01:29:55.000|Flooding|12435230-101004176820                             
1|29.66972185|-95.48720476|5714 WIGTON, HOUSTON TX 77096|2020-07-20 23:56:53.000|2020-07-21 07:34:19.157|2020-07-24 23:56:52.000|Flooding|12435330-101004178398                             
1|29.66988082|-95.44437857|10302 WOODWIND, HOUSTON TX 77025|2020-12-01 23:06:26.400|2020-12-17 12:11:47.467|2020-12-05 23:06:26.000|Flooding|12447650-101004425324                             
1|29.66988082|-95.44437857|10302 WOODWIND, HOUSTON TX 77025|2020-12-01 23:06:27.773|2020-12-01 23:07:15.180|2020-12-05 23:06:27.000|Flooding|12447650-101004425325                             
1|29.67055408|-95.48558697|5650 YARWELL, HOUSTON TX 77096|2021-05-24 12:00:31.680|2021-05-24 13:50:46.333|2021-05-28 12:00:31.000|Flooding|12462571-101004698583                             
1|29.67075654|-95.49722929|6035 DUMFRIES, HOUSTON TX 77096|2020-12-08 10:03:53.547|2020-12-17 12:06:27.447|2020-12-12 10:03:53.000|Flooding|12448108-101004431882                             
1|29.67075654|-95.49722929|6035 DUMFRIES, HOUSTON TX 77096|2021-02-12 07:16:52.193|2021-02-12 15:59:26.963|2021-02-16 07:16:52.000|Flooding|12453776-101004542907                             
1|29.67087618|-95.44535016|10138 OBOE, HOUSTON TX 77025|2020-09-21 20:55:59.340|2020-09-22 13:39:19.170|2020-09-25 20:55:59.000|Flooding|12441625-101004284135                             
1|29.6709048|-95.48514687|5643 DUMFRIES, HOUSTON TX 77096|2021-05-24 12:00:24.833|2021-05-24 13:47:46.317|2021-05-28 12:00:24.000|Flooding|12462568-101004698580                             
1|29.67095482|-95.34776761|5018 NORTHRIDGE, HOUSTON TX 77033|2021-04-14 16:27:22.930|2021-04-15 08:54:21.137|2021-04-18 16:27:22.000|Flooding|12458450-101004641907                             
1|29.6709779|-95.35813655|4563 SUNFLOWER, HOUSTON TX 77051|2020-10-08 17:36:14.677|2020-10-09 13:44:19.257|2020-10-12 17:36:14.000|Flooding|12443840-101004316926                             
1|29.67102523|-95.52513256|8407 S BRAESWOOD, HOUSTON TX 77071|2021-01-07 09:40:27.370|2021-01-07 10:44:20.350|2021-01-11 09:39:00.000|Flooding|12450648-101004472996                             
1|29.67222015|-95.42478172|Intersection 3000 W BELLFORT AVE&10100 BUFFALO SPWY|2020-09-22 16:38:38.850|2020-09-22 19:14:19.493|2020-09-26 16:38:38.000|Flooding|12441952-101004285434                             
1|29.67225684|-95.48310726|5606 VALKEITH, HOUSTON TX 77096|2020-09-21 22:16:08.540|2020-09-22 13:49:19.617|2020-09-25 22:16:08.000|Flooding|12441641-101004284176                             
1|29.67300125|-95.46945669|5101 RUTHERGLENN, HOUSTON TX 77096|2021-02-26 23:07:23.473|2021-03-19 15:49:56.557|2021-03-02 23:07:23.000|Flooding|12454483-101004574908                             
1|29.67306718|-95.36898709|3730 STASSEN, HOUSTON TX 77051|2021-05-24 12:38:19.770|2021-05-24 12:47:46.250|2021-05-28 12:38:19.000|Flooding|12462593-101004698672                             
1|29.6730932|-95.34944002|5022 EDFIELD, HOUSTON TX 77033|2020-09-22 10:44:30.463|2020-09-22 14:34:19.390|2020-09-26 10:44:30.000|Flooding|12441813-101004284723                             
1|29.67321232|-95.49334297|9814 HILLCROFT, HOUSTON TX 77096|2020-10-19 15:30:55.390|2020-10-20 16:19:19.670|2020-10-23 15:30:55.000|Flooding|12444689-101004338903                             
1|29.67444715|-95.25419359|5611 BROOKGLEN, HOUSTON TX 77017|2021-05-03 10:16:50.487|2021-05-03 10:18:34.737|2021-05-07 10:14:00.000|Flooding|101004662920                                      
1|29.67539792|-95.26820364|Intersection 7976 BELLFORT ST&8400 GULF FWY|2021-05-16 19:08:11.687|2021-05-17 08:27:37.747|2021-05-20 19:08:11.000|Flooding|12461243-101004679183                             
1|29.67604567|-95.33404002|5810 SOUTHSEAS, HOUSTON TX 77033|2021-05-23 14:18:15.413|2021-05-24 11:48:46.047|2021-05-27 14:18:15.000|Flooding|12462413-101004697745                             
1|29.67621285|-95.28345602|7643 GLENVIEW, HOUSTON TX 77061|2020-09-22 11:01:10.493|2020-09-23 14:14:19.063|2020-09-26 11:01:10.000|Flooding|12441822-101004284769                             
1|29.67684285|-95.23441731|2214 LINDEN CREEK, HOUSTON TX 77017|2020-08-22 16:15:30.850|2020-08-22 17:45:15.197|2020-08-26 16:15:30.000|Flooding|12438855-101004229767                             
1|29.67684285|-95.23441731|2214 LINDEN CREEK, HOUSTON TX 77017|2020-08-22 16:16:07.397|2020-08-25 16:19:18.660|2020-08-26 16:16:07.000|Flooding|12438855-101004229768                             
1|29.67704996|-95.27367553|8103 GLEN DELL, HOUSTON TX 77061|2021-02-17 09:15:51.923|2021-02-17 11:40:05.587|2021-02-21 09:15:51.000|Flooding|440526-101004546883                               
1|29.67707055|-95.36743708|7830 SCOTT, HOUSTON TX 77051|2021-02-19 23:05:59.610|2021-02-19 23:59:19.173|2021-02-23 23:05:59.000|Flooding|12454044-101004562719                             
1|29.67714065|-95.43909649|3812 LINK VALLEY, HOUSTON TX 77025|2021-05-24 19:07:32.660|2021-05-25 08:36:46.753|2021-05-28 19:04:00.000|Flooding|12462903-101004699665                             
1|29.67736811|-95.27443332|7911 SANTA ELENA, HOUSTON TX 77061|2021-05-27 18:01:00.680|2021-05-27 18:13:49.247|2021-05-31 18:01:00.000|Flooding|12463674-101004704219                             
1|29.67950943|-95.49556401|5900 N BRAESWOOD, HOUSTON TX 77074|2020-07-27 17:45:16.250|2020-07-28 10:34:19.283|2020-07-31 17:45:16.000|Flooding|12436109-101004186696                             
1|29.67951962|-95.46800226|Intersection 5100 N BRAESWOOD BLVD&9050 S RICE AVE|2020-12-13 10:16:57.250|2020-12-17 11:57:41.250|2020-12-17 10:16:57.000|Flooding|12448510-101004447766                             
1|29.68010223|-95.46642521|5018 N BRAESWOOD, HOUSTON TX 77096|2020-11-28 08:30:06.890|2020-11-28 08:49:19.357|2020-12-02 08:30:06.000|Flooding|12447364-101004421651                             
1|29.68016798|-95.46584035|5010 N BRAESWOOD, HOUSTON TX 77096|2020-12-31 23:06:00.587|2021-01-05 09:24:20.553|2021-01-04 23:06:00.000|Flooding|12450143-101004466631                             
1|29.68076944|-95.29110253|7546 EL RANCHO, HOUSTON TX 77087|2020-12-19 13:18:16.437|2020-12-22 11:59:19.997|2020-12-23 13:18:16.000|Flooding|12449119-101004454680                             
1|29.6816723|-95.23836537|5523 TURTLE CREEK, HOUSTON TX 77017|2020-12-19 13:29:50.963|2020-12-21 08:49:20.700|2020-12-23 13:29:50.000|Flooding|12449124-101004454701                             
1|29.68218461|-95.3295864|5938 SOUTHLARK, HOUSTON TX 77033|2021-05-24 10:17:39.743|2021-05-24 10:40:46.007|2021-05-28 10:17:39.000|Flooding|12462500-101004698317                             
1|29.68240514|-95.42717815|Intersection 9428 BUFFALO SPWY&3200 WESTRIDGE ST|2020-08-10 05:35:30.440|2020-08-18 12:43:11.490|2020-08-14 05:35:30.000|Flooding|12437501-101004202818                             
1|29.68249386|-95.4442409|4118 MISCHIRE, HOUSTON TX 77025|2021-02-18 14:08:37.510|2021-02-18 14:29:19.917|2021-02-22 14:08:37.000|Flooding|12453986-101004559074                             
1|29.68260992|-95.33891515|5314 CHENNAULT, HOUSTON TX 77033|2020-09-23 11:57:12.283|2020-09-23 12:39:16.367|2020-09-27 11:57:12.000|Flooding|101004286565                                      
1|29.68283461|-95.52930705|8611 ARIEL, HOUSTON TX 77074|2021-02-26 23:08:17.037|2021-03-19 15:49:26.803|2021-03-02 23:08:16.000|Flooding|12454491-101004574934                             
1|29.68352318|-95.33497744|6801 KASSARINE, HOUSTON TX 77033|2021-01-07 09:06:31.197|2021-01-07 09:54:20.850|2021-01-11 09:06:31.000|Flooding|12450640-101004472928                             
1|29.68359549|-95.45442683|9101 FRANKWAY, HOUSTON TX 77096|2020-09-22 22:18:12.703|2020-09-23 13:29:19.087|2020-09-26 22:18:12.000|Flooding|12442092-101004285932                             
1|29.6837945|-95.2582275|8406 WIER, HOUSTON TX 77017|2020-12-31 12:46:22.173|2021-01-04 15:29:20.960|2021-01-04 12:46:21.000|Flooding|12450071-101004466075                             
1|29.68403422|-95.46341425|4838 JASON, HOUSTON TX 77096|2020-09-30 00:05:55.973|2020-09-30 01:49:20.480|2020-10-04 00:05:55.000|Flooding|12442969-101004295131                             
1|29.68428831|-95.46413297|4949 JACKWOOD, HOUSTON TX 77096|2020-09-29 00:05:48.867|2020-09-29 14:09:18.887|2020-10-03 00:05:48.000|Flooding|12442811-101004293356                             
1|29.68476643|-95.35747718|7136 FOSTER, HOUSTON TX 77021|2020-07-07 10:59:40.293|2020-07-07 11:34:18.720|2020-07-11 10:59:40.000|Flooding|12434172-101004140378                             
1|29.684977|-95.37003459|3634 NOAH, HOUSTON TX 77021|2020-07-14 16:51:27.123|2020-07-15 14:29:19.107|2020-07-18 16:51:26.000|Flooding|12434792-101004150545                             
1|29.68522494|-95.36842056|3726 SEABROOK, HOUSTON TX 77021|2021-05-24 16:38:35.460|2021-05-24 16:51:46.233|2021-05-28 16:38:35.000|Flooding|12462832-101004699409                             
1|29.68531983|-95.38628526|2730 HOLLY HALL, HOUSTON TX 77054|2020-08-05 19:31:06.627|2020-08-05 19:49:18.857|2020-08-09 19:31:06.000|Flooding|12437214-101004198585                             
1|29.68545699|-95.3050084|7005 LONG, HOUSTON TX 77087|2020-08-22 16:01:12.307|2020-08-24 10:24:19.340|2020-08-26 16:01:12.000|Flooding|12438853-101004229758                             
1|29.68639614|-95.39391931|2425 HOLLY HALL, HOUSTON TX 77054|2020-12-21 14:17:30.923|2020-12-22 15:44:20.220|2020-12-25 14:17:30.000|Flooding|12449352-101004456308                             
1|29.68661874|-95.46466823|Intersection 8600 ENDICOTT LN&5000 INDIGO ST|2021-02-11 10:22:23.880|2021-02-11 15:49:21.403|2021-02-15 10:22:23.000|Flooding|12453703-101004542074                             
1|29.68676077|-95.51609846|7402 GRAPE, HOUSTON TX 77074|2020-07-25 18:22:57.300|2020-07-27 15:44:18.217|2020-07-29 18:22:57.000|Flooding|12435945-101004184842                             
1|29.68698012|-95.39886606|2111 HOLLY HALL, HOUSTON TX 77054|2021-02-20 17:31:58.647|2021-02-20 17:44:19.510|2021-02-24 17:31:58.000|Flooding|12454091-101004564059                             
1|29.68727784|-95.51570458|7339 DARNELL, HOUSTON TX 77074|2020-07-25 16:59:33.630|2020-07-27 10:34:19.183|2020-07-29 16:59:33.000|Flooding|12435930-101004184801                             
1|29.68762966|-95.27443904|3803 RIVER, HOUSTON TX 77017|2020-12-04 15:15:37.353|2020-12-17 12:04:03.163|2020-12-08 15:15:37.000|Flooding|12447925-101004428646                             
1|29.68762966|-95.27443904|3803 RIVER, HOUSTON TX 77017|2020-12-08 15:15:34.710|2020-12-17 12:08:39.387|2020-12-12 15:15:34.000|Flooding|12448150-101004432531                             
1|29.68770658|-95.49716754|6002 CAREW, HOUSTON TX 77074|2021-01-06 10:13:50.053|2021-01-07 10:49:20.573|2021-01-10 10:13:49.000|Flooding|12450513-101004471664                             
1|29.68803081|-95.5014554|6213 TANAGER, HOUSTON TX 77074|2020-07-28 00:31:28.053|2020-07-28 10:14:19.273|2020-08-01 00:31:27.000|Flooding|12436149-101004186899                             
1|29.68803081|-95.5014554|6213 TANAGER, HOUSTON TX 77074|2020-09-22 08:16:08.263|2020-09-22 14:49:19.373|2020-09-26 08:16:08.000|Flooding|12441724-101004284415                             
1|29.68803081|-95.5014554|6213 TANAGER, HOUSTON TX 77074|2021-03-10 23:06:24.290|2021-03-19 15:29:31.387|2021-03-14 23:06:24.000|Flooding|12455347-101004590069                             
1|29.68819479|-95.35291909|6825 LONDON, HOUSTON TX 77021|2020-09-22 08:53:33.737|2020-09-22 13:24:19.280|2020-09-26 08:53:33.000|Flooding|12441746-101004284486                             
1|29.68846577|-95.4376391|3803 LINKVIEW, HOUSTON TX 77025|2021-02-17 17:00:53.460|2021-02-17 19:10:18.793|2021-02-21 17:00:53.000|Flooding|440599-101004547605                               
1|29.68880848|-95.36358639|Intersection 3900 FAULKNER ST&7046 SCOTT ST|2021-02-11 20:19:12.683|2021-02-12 10:49:22.057|2021-02-15 20:19:12.000|Flooding|12453756-101004542782                             
1|29.68928536|-95.34690088|Intersection 6700 WESTON ST&4900 YELLOWSTONE BLVD|2021-03-02 11:28:10.700|2021-03-19 15:46:41.100|2021-03-06 11:28:10.000|Flooding|12454679-101004578443                             
1|29.68928717|-95.50382234|Intersection 6900 BISSONNET ST&8300 MCAVOY DR|2020-12-25 07:50:39.577|2020-12-25 08:34:19.740|2020-12-29 07:50:39.000|Flooding|12449649-101004459932                             
1|29.68949534|-95.4694201|5122 BEECHNUT, HOUSTON TX 77025|2021-05-19 16:51:16.863|2021-05-19 20:10:40.670|2021-05-23 16:51:16.000|Flooding|12461909-101004683700                             
1|29.68949534|-95.4694201|5122 BEECHNUT, HOUSTON TX 77025|2021-06-03 14:44:59.687|2021-06-07 05:34:06.630|2021-06-07 14:44:59.000|Flooding|12464617-101004711822                             
1|29.68955725|-95.45688515|4660 BEECHNUT, HOUSTON TX 77025|2020-07-27 01:17:53.367|2020-07-27 01:34:18.767|2020-07-31 01:17:53.000|Flooding|12436007-101004185365                             
1|29.68955779|-95.45723781|4670 BEECHNUT, HOUSTON TX 77025|2020-09-22 00:05:45.403|2020-09-22 13:34:19.023|2020-09-26 00:05:45.000|Flooding|12441655-101004284225                             
1|29.68973694|-95.60199624|8014 EMPEROR, HOUSTON TX 77072|2020-09-23 08:05:14.443|2020-09-24 13:14:18.913|2020-09-27 08:05:14.000|Flooding|12442141-101004286077                             
1|29.68984004|-95.57833145|11258 HAZEN, HOUSTON TX 77072|2020-09-07 15:32:53.027|2020-09-08 09:39:18.507|2020-09-11 15:32:52.000|Flooding|12440216-101004267492                             
1|29.68984004|-95.57833145|11258 HAZEN, HOUSTON TX 77072|2020-12-19 12:32:29.160|2020-12-22 12:29:20.337|2020-12-23 12:32:29.000|Flooding|12449281-101004454622                             
1|29.68987589|-95.24860487|1430 AUBERT, HOUSTON TX 77017|2020-12-31 12:19:23.790|2020-12-31 12:39:20.497|2021-01-04 12:19:23.000|Flooding|12450048-101004466017                             
1|29.69014431|-95.58252688|8107 BELLE PARK, HOUSTON TX 77072|2020-11-27 14:41:06.367|2020-11-30 15:29:20.080|2020-12-01 14:41:06.000|Flooding|12447313-101004421257                             
1|29.69060429|-95.60074593|Intersection 7938 DAIRY VIEW LN&12500 PROSPERITY RIVER CT|2020-09-22 09:12:36.520|2020-09-22 12:04:19.347|2020-09-26 09:12:36.000|Flooding|12441762-101004284528                             
1|29.69061995|-95.6005404|7935 DAIRY VIEW, HOUSTON TX 77072|2020-09-22 22:43:15.727|2020-09-23 08:54:19.600|2020-09-26 22:43:15.000|Flooding|12442107-101004285953                             
1|29.69076775|-95.60373543|7991 DAIRY ASHFORD, HOUSTON TX 77072|2021-04-08 12:38:07.947|2021-04-08 15:24:21.610|2021-04-12 12:38:07.000|Flooding|12457918-101004634257                             
1|29.69147307|-95.34622402|6518 WESTON, HOUSTON TX 77021|2021-04-09 12:26:24.327|2021-04-09 12:44:22.060|2021-04-13 12:26:24.000|Flooding|12458052-101004635897                             
1|29.69167283|-95.57091263|7909 WILCREST, HOUSTON TX 77072|2021-05-25 11:52:27.483|2021-05-25 14:34:46.843|2021-05-29 11:52:27.000|Flooding|12463028-101004700363                             
1|29.69187112|-95.50191365|8110 ALBACORE, HOUSTON TX 77074|2020-09-22 12:02:28.017|2020-09-23 10:54:18.710|2020-09-26 12:02:27.000|Flooding|12441867-101004284933                             
1|29.69192636|-95.54683604|7991 KENDALIA, HOUSTON TX 77036|2021-02-20 11:20:21.817|2021-02-21 20:54:19.903|2021-02-24 11:20:21.000|Flooding|12454072-101004563349                             
1|29.69224907|-95.56823735|10719 HAZEN, HOUSTON TX 77072|2021-05-25 11:57:28.763|2021-05-26 08:50:47.710|2021-05-29 11:57:28.000|Flooding|12463029-101004700373                             
1|29.69230231|-95.60052141|7807 DAIRY VIEW, HOUSTON TX 77072|2020-09-23 09:59:37.923|2020-09-24 13:24:19.110|2020-09-27 09:59:37.000|Flooding|12442162-101004286272                             
1|29.69239081|-95.25170672|4834 MICHAEL, HOUSTON TX 77017|2021-05-25 13:12:36.360|2021-05-26 11:34:47.970|2021-05-29 13:12:36.000|Flooding|12463051-101004700527                             
1|29.69520235|-95.35234217|6330 EASTWOOD, HOUSTON TX 77021|2021-05-23 11:00:15.777|2021-05-24 10:32:46.270|2021-05-27 11:00:15.000|Flooding|12462399-101004697648                             
1|29.69540163|-95.35226137|6322 EASTWOOD, HOUSTON TX 77021|2021-05-23 18:15:20.137|2021-05-24 10:26:46.140|2021-05-27 18:15:20.000|Flooding|12462448-101004697859                             
1|29.69600412|-95.3074098|6604 S LOOP, HOUSTON TX 77087|2020-12-19 14:17:48.320|2020-12-22 08:39:20.703|2020-12-23 14:17:47.000|Flooding|12449141-101004454787                             
1|29.69610747|-95.3836994|2960 ALICE, HOUSTON TX 77054|2021-03-01 23:06:33.570|2021-03-19 15:45:32.503|2021-03-05 23:06:33.000|Flooding|12454637-101004577816                             
1|29.69667486|-95.34556807|4616 KINGSBURY, HOUSTON TX 77021|2021-01-19 11:41:05.850|2021-01-19 11:59:21.747|2021-01-23 11:41:05.000|Flooding|12451676-101004496224                             
1|29.69669482|-95.50789253|7046 SHARPCREST, HOUSTON TX 77074|2020-09-28 21:11:41.360|2020-09-29 10:24:18.820|2020-10-02 21:11:41.000|Flooding|12442809-101004293319                             
1|29.69815624|-95.51904892|7505 SOUTHWEST, HOUSTON TX 77074|2021-02-21 23:09:34.590|2021-02-21 23:49:19.033|2021-02-25 23:09:34.000|Flooding|12454150-101004565518                             
1|29.69886736|-95.572007|10915 SHARPVIEW, HOUSTON TX 77072|2021-06-09 15:08:39.777|2021-06-10 07:43:51.987|2021-06-13 15:08:39.000|Flooding|12465509-101004719498                             
1|29.6990743|-95.60723663|7207 LONGVINE, HOUSTON TX 77072|2021-05-29 17:17:29.843|2021-06-01 10:19:53.460|2021-06-02 17:17:29.000|Flooding|12463924-101004706421                             
1|29.69926746|-95.41104961|7514 MAIN, HOUSTON TX 77030|2020-10-03 11:01:01.940|2020-10-03 11:54:19.050|2020-10-07 11:01:01.000|Flooding|12443303-101004309765                             
1|29.70011329|-95.58288578|Intersection 7300 BELLE PARK DR&11600 STROUD DR|2021-01-04 12:03:35.237|2021-01-05 14:09:21.237|2021-01-08 12:03:35.000|Flooding|12450282-101004468688                             
1|29.7030964|-95.3320464|Intersection 5100 DITMAS LN&5200 NASSAU RD|2021-05-24 16:39:06.600|2021-05-25 09:51:46.763|2021-05-28 16:39:06.000|Flooding|12462829-101004699411                             
1|29.70312164|-95.60829452|12811 BELLAIRE, HOUSTON TX 77072|2020-07-23 18:02:05.963|2020-07-24 14:24:18.880|2020-07-27 18:02:05.000|Flooding|12435712-101004182660                             
1|29.70570719|-95.30043947|6602 KELLER, HOUSTON TX 77087|2021-02-18 23:06:28.723|2021-02-19 00:09:19.480|2021-02-22 23:06:28.000|Flooding|12454005-101004560295                             
1|29.7062301|-95.40301521|Intersection 6800 FANNIN ST&1102 HOLCOMBE BLVD|2021-05-23 14:54:04.590|2021-05-24 16:05:46.193|2021-05-27 14:54:04.000|Flooding|12462425-101004697767                             
1|29.70624538|-95.40506738|Intersection 1000 HOLCOMBE BLVD&2100 W HOLCOMBE BLVD&6800 MA|2021-05-23 14:26:50.450|                   NULL|2021-05-27 14:26:50.000|Flooding|12462414-101004697747                             
1|29.70624538|-95.40506738|Intersection 1000 HOLCOMBE BLVD&2100 W HOLCOMBE BLVD&6800 MA|2021-05-23 19:32:50.740|2021-05-23 19:34:27.117|2021-05-27 19:32:50.000|Flooding|12462414-101004697883                             
1|29.70624538|-95.40506738|Intersection 1000 HOLCOMBE BLVD&2100 W HOLCOMBE BLVD&6800 MA|2021-05-23 23:41:45.663|2021-05-24 00:10:21.993|2021-05-27 23:41:45.000|Flooding|12462414-101004697918                             
1|29.70624538|-95.40506738|Intersection 1000 HOLCOMBE BLVD&2100 W HOLCOMBE BLVD&6800 MA|2021-05-29 05:27:05.063|2021-06-01 08:09:53.270|2021-06-02 05:27:00.000|Flooding|12463848-101004705918                             
1|29.7069641|-95.40526494|6800 MAIN, HOUSTON TX 77030|2020-07-25 11:05:47.907|2020-07-26 07:44:18.707|2020-07-29 11:05:47.000|Flooding|12435893-101004184513                             
1|29.70829782|-95.30570988|Intersection 6346 GRIGGS RD&6500 GULF FWY|2020-09-22 07:26:01.810|2020-09-22 13:34:19.057|2020-09-26 07:26:01.000|Flooding|12441695-101004284340                             
1|29.70873411|-95.32059305|2905 LIPSCOMB, HOUSTON TX 77023|2020-08-21 12:34:59.117|2020-08-21 15:59:18.710|2020-08-25 12:34:59.000|Flooding|12438710-101004228387                             
1|29.70900662|-95.29804436|6802 KERNEL, HOUSTON TX 77087|2021-02-22 13:25:31.760|2021-02-22 13:44:19.190|2021-02-26 13:25:31.000|Flooding|12454175-101004566689                             
1|29.70933012|-95.30526542|6423 GULF, HOUSTON TX 77023|2020-09-22 22:18:40.360|2020-09-23 10:34:18.863|2020-09-26 22:18:40.000|Flooding|12442100-101004285945                             
1|29.70980214|-95.3330086|Intersection 5120 OLD SPANISH TRL&4912 TEXAS SPUR 5|2020-09-22 07:48:12.770|2020-09-22 11:29:19.787|2020-09-26 07:48:12.000|Flooding|12441709-101004284368                             
1|29.70993088|-95.38077671|2402 CHARLESTON, HOUSTON TX 77021|2021-06-22 19:38:14.250|2021-06-23 11:08:24.630|2021-06-26 19:38:14.000|Flooding|12467243-101004766064                             
1|29.71029548|-95.25494561|9701 LAWNDALE, HOUSTON TX 77017|2020-07-22 23:06:15.633|2020-07-23 17:34:18.640|2020-07-26 23:05:00.000|Flooding|12435565-101004181210                             
1|29.71111981|-95.25956479|9570 LAWNDALE, HOUSTON TX 77012|2020-12-19 21:53:06.913|2020-12-21 05:49:19.760|2020-12-23 21:49:00.000|Flooding|12449183-101004455048                             
1|29.71123565|-95.58365459|4310 CARNELIAN, HOUSTON TX 77072|2021-05-20 16:36:37.983|2021-05-21 08:44:41.330|2021-05-24 16:36:37.000|Flooding|12462112-101004685250                             
1|29.71216719|-95.49746677|6500 SANDS POINT, HOUSTON TX 77074|2021-02-22 23:05:53.403|2021-03-19 16:31:46.643|2021-02-26 23:05:53.000|Flooding|12454198-101004567756                             
1|29.71277802|-95.5181312|6122 MARINETTE, HOUSTON TX 77036|2021-04-08 12:08:50.130|2021-04-09 09:14:21.290|2021-04-12 12:08:50.000|Flooding|12457738-101004633389                             
1|29.71283259|-95.51782754|7545 BELLERIVE, HOUSTON TX 77036|2020-09-22 00:05:42.497|2020-09-22 13:09:19.017|2020-09-26 00:05:42.000|Flooding|12441654-101004284224                             
1|29.71294106|-95.50918391|7207 CRYSTAL, HOUSTON TX 77036|2021-06-25 15:01:53.340|                   NULL|2021-06-29 15:01:53.000|Flooding|12467675-101004770161                             
1|29.7131399|-95.377853|Intersection 2400 N MACGREGOR WAY&0 SOUTH FWY|2021-05-18 22:59:02.647|2021-05-19 12:22:40.120|2021-05-22 22:59:02.000|Flooding|12461591-101004682341                             
1|29.71337655|-95.58266687|4100 BELLE PARK, HOUSTON TX 77072|2021-02-18 23:08:18.200|2021-02-19 00:04:19.133|2021-02-22 23:08:18.000|Flooding|12454011-101004560359                             
1|29.71387245|-95.32631704|2554 MUNGER, HOUSTON TX 77023|2020-08-27 16:00:14.530|2020-08-31 10:24:19.183|2020-08-31 16:00:14.000|Flooding|12439485-101004245618                             
1|29.71399045|-95.26635152|Intersection 802 E IH 610 LOOP S&8900 LAWNDALE ST|2020-08-03 14:25:17.123|2020-08-03 14:27:39.233|2020-08-07 14:25:17.000|Flooding|12436878-101004194768                             
1|29.71447778|-95.37127686|5511 ENNIS, HOUSTON TX 77004|2021-02-19 23:05:41.750|2021-02-19 23:34:19.110|2021-02-23 23:05:41.000|Flooding|12454042-101004562711                             
1|29.71463311|-95.35250745|3842 ARBOR, HOUSTON TX 77004|2020-08-17 14:51:00.833|2020-08-19 06:18:35.333|2020-08-21 14:51:00.000|Flooding|12438183-101004222374                             
1|29.71517723|-95.47527466|5420 ASHBROOK, HOUSTON TX 77081|2021-02-07 10:00:46.283|2021-02-07 10:29:21.910|2021-02-11 10:00:46.000|Flooding|12453324-101004537334                             
1|29.71527107|-95.33337154|4907 TEXAS SPUR 5, HOUSTON TX 77004|2020-11-27 16:55:16.917|2020-12-17 12:30:34.437|2020-12-01 16:55:16.000|Flooding|12447334-101004421444                             
1|29.71556279|-95.33483126|Intersection 4900 TEXAS SPUR 5&4900 WHEELER ST|2020-09-21 15:04:23.437|2020-09-23 10:34:18.923|2020-09-25 15:04:23.000|Flooding|12441570-101004283757                             
1|29.71584642|-95.60375905|12406 SHADOW DUST, HOUSTON TX 77082|2021-02-15 23:06:11.933|2021-02-18 00:49:19.390|2021-02-19 23:06:11.000|Flooding|12453910-101004545293                             
1|29.71599619|-95.47527561|5419 GULFTON, HOUSTON TX 77081|2020-10-22 16:59:27.190|2020-10-23 09:19:19.670|2020-10-26 16:59:27.000|Flooding|12445026-101004343324                             
1|29.71792848|-95.39517954|6238 FANNIN, HOUSTON TX 77004|2020-07-30 08:01:13.330|2020-07-30 08:24:18.530|2020-08-03 08:01:13.000|Flooding|12436487-101004189988                             
1|29.71869287|-95.35575876|Intersection 4100 CANFIELD ST&3500 RUTH ST|2021-05-25 15:22:35.273|2021-05-26 12:09:47.850|2021-05-29 15:21:00.000|Flooding|12463092-101004700823                             
1|29.71902957|-95.49839329|6603 HARWIN, HOUSTON TX 77036|2021-06-22 07:06:13.603|2021-06-22 11:04:23.180|2021-06-26 07:06:13.000|Flooding|12467048-101004764503                             
1|29.72021298|-95.46809378|Intersection 5100 GLENMONT DR&5700 S RICE AVE|2020-09-22 07:30:26.427|2020-09-22 10:49:18.577|2020-09-26 07:30:26.000|Flooding|12441698-101004284346                             
1|29.720864|-95.35447617|3602 EAGLE, HOUSTON TX 77004|2021-02-11 17:56:38.560|2021-02-12 10:44:21.807|2021-02-15 17:56:38.000|Flooding|12453752-101004542736                             
1|29.720864|-95.35447617|3602 EAGLE, HOUSTON TX 77004|2021-02-18 11:32:54.440|2021-02-19 15:19:19.053|2021-02-22 11:32:54.000|Flooding|12453979-101004558556                             
1|29.72129271|-95.35414038|3607 EAGLE, HOUSTON TX 77004|2021-02-11 15:31:09.917|2021-02-12 10:14:21.393|2021-02-15 15:31:09.000|Flooding|12453734-101004542539                             
1|29.72129271|-95.35414038|3607 EAGLE, HOUSTON TX 77004|2021-02-17 09:22:13.080|2021-02-17 14:44:57.887|2021-02-21 09:22:12.000|Flooding|101004546891                                      
1|29.72146218|-95.52030936|Intersection 5600 FONDREN RD&8800 WESTPARK DR|2021-03-17 11:36:29.170|2021-03-19 15:23:51.130|2021-03-21 11:36:29.000|Flooding|12455800-101004607278                             
1|29.72203262|-95.51394655|Intersection 3960 DUNVALE RD&8600 WESTPARK DR|2020-09-22 01:26:15.400|2020-09-22 12:29:19.510|2020-09-26 01:26:15.000|Flooding|12441666-101004284255                             
1|29.7221525|-95.45920823|5505 W LOOP S, HOUSTON TX 77081|2020-09-28 08:31:00.943|2020-09-29 15:44:19.067|2020-10-02 08:31:00.000|Flooding|12442704-101004291886                             
1|29.72379298|-95.60642993|Intersection 3500 ASHLOCK DR&12550 WESTPARK DR|2021-04-14 12:55:52.957|2021-04-14 13:09:22.340|2021-04-18 12:55:52.000|Flooding|12458421-101004641550                             
1|29.72408528|-95.31120005|6601 MEADOWLAWN, HOUSTON TX 77023|2020-09-22 22:18:35.593|2020-09-23 14:59:19.687|2020-09-26 22:18:35.000|Flooding|12442099-101004285943                             
1|29.72456356|-95.40444939|1821 WROXTON, HOUSTON TX 77005|2021-02-18 10:24:58.370|2021-02-19 12:04:19.270|2021-02-22 10:24:58.000|Flooding|12453978-101004558372                             
1|29.72475244|-95.31127156|Intersection 6600 LAWNDALE ST&1200 S WAYSIDE ST|2020-09-22 05:49:29.300|2020-09-22 10:59:19.210|2020-09-26 05:49:29.000|Flooding|12441679-101004284296                             
1|29.72492437|-95.31075323|1199 S WAYSIDE, HOUSTON TX 77023|2020-09-22 22:18:40.330|2020-09-23 15:49:19.543|2020-09-26 22:18:40.000|Flooding|12442101-101004285944                             
1|29.72588229|-95.33766957|4534 CALHOUN, HOUSTON TX 77004|2020-12-17 23:06:01.880|2020-12-22 05:59:19.883|2020-12-21 23:06:01.000|Flooding|12449026-101004453256                             
1|29.72592204|-95.61785597|3111 HOLLOW CREEK, HOUSTON TX 77082|2021-01-27 23:05:32.550|2021-01-28 15:09:20.980|2021-01-31 23:05:32.000|Flooding|12452466-101004506706                             
1|29.72592204|-95.61785597|3111 HOLLOW CREEK, HOUSTON TX 77082|2021-02-03 23:07:25.120|2021-02-04 11:59:21.267|2021-02-07 23:07:24.000|Flooding|12453074-101004514241                             
1|29.72622849|-95.33817943|Intersection 4328 ELGIN ST&2300 S LOCKWOOD DR|2020-09-20 16:47:31.120|2020-09-20 17:09:18.920|2020-09-24 16:47:30.000|Flooding|12441456-101004282628                             
1|29.72622849|-95.33817943|Intersection 4328 ELGIN ST&2300 S LOCKWOOD DR|2020-12-03 11:59:58.443|2020-12-17 12:11:26.543|2020-12-07 11:59:58.000|Flooding|12447819-101004427031                             
1|29.72628058|-95.3203395|1314 HACKNEY, HOUSTON TX 77023|2021-03-21 13:30:33.693|2021-03-22 08:19:21.087|2021-03-25 13:30:33.000|Flooding|12456161-101004611482                             
1|29.72658403|-95.2959959|548 S 75TH, HOUSTON TX 77023|2021-04-09 18:00:44.560|2021-04-09 18:14:21.903|2021-04-13 18:00:44.000|Flooding|12458084-101004636572                             
1|29.7266304|-95.38172261|5004 CRAWFORD, HOUSTON TX 77004|2020-12-14 23:05:53.367|2020-12-17 11:57:11.500|2020-12-18 23:05:53.000|Flooding|12448757-101004449716                             
1|29.72680483|-95.63577265|Intersection 13800 SHERI HOLLOW LN&3100 WESTHOLLOW DR|2021-04-24 17:34:37.317|2021-04-26 09:23:53.160|2021-04-28 17:34:37.000|Flooding|12459239-101004653449                             
1|29.72686336|-95.34517358|4000 ELGIN, HOUSTON TX 77004|2020-09-21 12:01:19.377|2020-09-21 13:04:19.230|2020-09-25 11:57:00.000|Flooding|12441536-101004283417                             
1|29.726942|-95.37096414|Intersection 4400 EMANCIPATION AVE&2400 WHEELER ST|2020-07-17 12:11:31.830|2020-07-20 11:14:18.577|2020-07-21 12:11:31.000|Flooding|12435084-101004174794                             
1|29.7270314|-95.60119535|12427 SHADOWKNOLL, HOUSTON TX 77082|2021-03-17 14:41:15.863|2021-03-19 15:19:50.690|2021-03-21 14:41:15.000|Flooding|12455851-101004607641                             
1|29.72748455|-95.40324625|1727 NORTH, HOUSTON TX 77098|2021-02-18 10:21:34.980|2021-02-18 10:59:19.407|2021-02-22 10:21:34.000|Flooding|12453976-101004558364                             
1|29.72749694|-95.39427535|1215 BARTLETT, HOUSTON TX 77006|2021-02-23 14:38:08.310|2021-03-19 15:59:22.080|2021-02-27 14:38:08.000|Flooding|12454225-101004568915                             
1|29.72753047|-95.64350237|2829 HIGHWAY 6 S, HOUSTON TX 77082|2021-02-18 23:07:34.730|2021-02-19 00:14:19.873|2021-02-22 23:07:34.000|Flooding|12454006-101004560334                             
1|29.72760496|-95.61164773|3227 KNOLL WEST, HOUSTON TX 77082|2020-09-22 08:42:05.570|2020-09-22 16:29:19.513|2020-09-26 08:42:05.000|Flooding|12441739-101004284463                             
1|29.72784416|-95.34989173|Intersection 3600 ELGIN ST&3300 SCOTT ST|2020-11-27 17:43:41.877|2020-11-27 17:59:19.177|2020-12-01 17:43:41.000|Flooding|12447338-101004421468                             
1|29.72819818|-95.61165142|3211 KNOLL WEST, HOUSTON TX 77082|2020-09-21 20:43:21.597|2020-09-22 16:39:19.040|2020-09-25 20:43:21.000|Flooding|12441623-101004284129                             
1|29.72821615|-95.35229777|3440 ELGIN, HOUSTON TX 77004|2020-11-28 01:48:00.607|2020-12-17 12:30:34.530|2020-12-02 01:48:00.000|Flooding|12447497-101004421593                             
1|29.72821813|-95.33617406|Intersection 0 GULF FWY&2190 S LOCKWOOD DR|2020-12-04 19:34:20.917|2020-12-17 12:10:26.530|2020-12-08 19:27:00.000|Flooding|12447944-101004428919                             
1|29.72865723|-95.5200422|3301 FONDREN, HOUSTON TX 77063|2021-02-21 23:09:25.260|2021-02-21 23:49:19.050|2021-02-25 23:09:25.000|Flooding|12454149-101004565513                             
1|29.72865723|-95.5200422|3301 FONDREN, HOUSTON TX 77063|2021-02-23 23:07:37.430|2021-03-19 16:31:00.860|2021-02-27 23:07:37.000|Flooding|12454263-101004569709                             
1|29.7290925|-95.64417755|2838 HIGHWAY 6 S, HOUSTON TX 77082|2021-02-18 23:07:37.650|2021-02-19 00:14:19.873|2021-02-22 23:07:37.000|Flooding|12454008-101004560336                             
1|29.72929376|-95.44142915|Intersection 4000 SOUTHWEST FWY&3800 WESLAYAN ST|2020-12-13 11:26:08.133|2020-12-17 12:06:32.307|2020-12-17 11:26:07.000|Flooding|12448521-101004447859                             
1|29.72933264|-95.47549323|5529 LINCREST, HOUSTON TX 77056|2021-05-24 12:00:29.507|2021-05-24 14:16:46.223|2021-05-28 12:00:29.000|Flooding|12462570-101004698582                             
1|29.72933264|-95.47549323|5529 LINCREST, HOUSTON TX 77056|2021-06-22 06:30:26.850|2021-06-22 13:45:23.293|2021-06-26 06:30:26.000|Flooding|12467036-101004764475                             
1|29.72957806|-95.38854228|Intersection 5000 MILAM ST&200 PORTLAND ST|2021-05-25 17:25:00.280|2021-05-26 13:58:48.150|2021-05-29 17:25:00.000|Flooding|12463146-101004701119                             
1|29.72979827|-95.34744516|2900 MILBY, HOUSTON TX 77004|2021-04-08 12:37:17.680|2021-04-08 14:59:22.903|2021-04-12 12:37:17.000|Flooding|12457910-101004634228                             
1|29.72980445|-95.40508543|1816 BANKS, HOUSTON TX 77098|2021-01-07 09:01:33.957|2021-01-07 09:39:21.023|2021-01-11 09:01:33.000|Flooding|12450636-101004472913                             
1|29.73010041|-95.33120033|1905 DUMBLE, HOUSTON TX 77023|2021-02-20 23:05:33.377|2021-02-20 23:19:19.280|2021-02-24 23:05:33.000|Flooding|12454107-101004564368                             
1|29.73056787|-95.45140849|Intersection 3700 NEWCASTLE DR&4600 SOUTHWEST FWY|2020-12-11 18:15:21.287|2020-12-17 11:57:40.110|2020-12-15 18:15:21.000|Flooding|12448459-101004436796                             
1|29.73089195|-95.45924419|Intersection 0 W LOOP FWY S&4700 SOUTHWEST FWY|2021-02-17 16:58:13.333|2021-02-17 17:01:29.223|2021-02-21 16:58:13.000|Flooding|101004547601                                      
1|29.73142358|-95.56697443|10855 MEADOWGLEN, HOUSTON TX 77042|2020-08-19 08:36:57.537|2020-08-20 10:34:18.513|2020-08-23 08:36:57.000|Flooding|12438371-101004224839                             
1|29.73168488|-95.48274668|5906 RICHMOND, HOUSTON TX 77057|2021-03-16 12:30:33.597|2021-03-19 15:23:47.067|2021-03-20 12:30:33.000|Flooding|12455718-101004605954                             
1|29.7319279|-95.50186019|7506 RICHMOND, HOUSTON TX 77057|2021-02-27 11:01:15.243|2021-03-19 15:49:54.617|2021-03-03 11:01:15.000|Flooding|12454506-101004575124                             
1|29.73197575|-95.2551287|Intersection 9800 CLINTON DR&2 FIDELITY ST|2020-09-22 10:40:41.147|2020-09-23 12:34:19.097|2020-09-26 10:40:41.000|Flooding|12441809-101004284716                             
1|29.73201742|-95.53082665|9414 MEADOWCROFT, HOUSTON TX 77063|2021-03-17 12:17:20.457|2021-03-19 15:23:50.630|2021-03-21 12:17:20.000|Flooding|12455814-101004607364                             
1|29.73222354|-95.39452942|4511 GRAUSTARK, HOUSTON TX 77006|2021-02-16 12:08:41.967|2021-02-17 00:15:39.850|2021-02-20 12:08:41.000|Flooding|101004545542                                      
1|29.7324935|-95.48286462|5917 FAIRDALE, HOUSTON TX 77057|2020-08-01 15:15:52.513|2020-08-01 15:59:19.097|2020-08-05 15:15:52.000|Flooding|12436728-101004193135                             
1|29.73309062|-95.39778675|1415D BONNIE BRAE, HOUSTON TX 77006|2021-02-18 12:49:36.027|2021-02-19 12:49:19.297|2021-02-22 12:49:35.000|Flooding|12453982-101004558834                             
1|29.73329748|-95.39663723|4400 YUPON, HOUSTON TX 77006|2021-02-20 15:15:56.383|2021-02-20 15:44:19.257|2021-02-24 15:15:56.000|Flooding|12454084-101004563824                             
1|29.73359381|-95.40723119|1902 PORTSMOUTH, HOUSTON TX 77098|2021-05-19 15:13:55.007|2021-05-19 19:28:40.800|2021-05-23 15:13:54.000|Flooding|12461883-101004683488                             
1|29.73368267|-95.40988044|2030 PORTSMOUTH, HOUSTON TX 77098|2021-05-16 22:48:38.107|2021-05-17 09:33:37.773|2021-05-20 22:48:37.000|Flooding|12461252-101004679245                             
1|29.73391849|-95.4832731|5921 DOLORES, HOUSTON TX 77057|2020-07-22 11:24:55.823|2020-07-22 14:34:18.497|2020-07-26 11:24:55.000|Flooding|12435478-101004180423                             
1|29.73456219|-95.29112991|402 75TH, HOUSTON TX 77012|2020-12-09 23:06:04.507|2020-12-17 12:06:30.150|2020-12-13 23:06:04.000|Flooding|12448264-101004434198                             
1|29.73492966|-95.37751649|3906 AUSTIN, HOUSTON TX 77004|2020-12-29 23:06:30.870|2020-12-30 12:49:20.080|2021-01-02 23:06:30.000|Flooding|12449901-101004464169                             
1|29.73523715|-95.33181754|Intersection 4550 LEELAND ST&1600 S LOCKWOOD DR&500 TELEPHON|2021-05-25 14:10:12.570|2021-05-26 14:42:48.333|2021-05-29 14:10:12.000|Flooding|12463075-101004700665                             
1|29.73579108|-95.40501078|1809 W MAIN, HOUSTON TX 77098|2021-02-19 23:06:16.407|2021-02-20 00:04:19.317|2021-02-23 23:06:16.000|Flooding|12454046-101004562727                             
1|29.73598819|-95.31136905|302 S 66TH, HOUSTON TX 77023|2021-04-16 14:00:39.880|2021-04-16 23:24:22.040|2021-04-20 14:00:39.000|Flooding|12458625-101004644282                             
1|29.73614233|-95.40691186|1858 W MAIN, HOUSTON TX 77098|2021-02-19 23:08:51.190|2021-02-20 00:34:19.083|2021-02-23 23:08:51.000|Flooding|12454058-101004562813                             
1|29.73627286|-95.41870889|Intersection 3200 KIRBY DR&2600 W MAIN ST|2020-07-20 16:11:32.557|2020-07-21 10:29:19.057|2020-07-24 16:11:32.000|Flooding|12435309-101004178090                             
1|29.73733077|-95.30574594|102 WAYSIDE, HOUSTON TX 77011|2020-11-28 10:55:18.940|2020-11-30 08:44:19.347|2020-12-02 10:55:18.000|Flooding|12447376-101004421781                             
1|29.7373409|-95.35123453|Intersection 3300 GULF FWY&2100 ROBERTS ST|2021-05-25 23:29:32.037|2021-05-26 13:33:47.930|2021-05-29 23:29:31.000|Flooding|12463189-101004701330                             
1|29.73764416|-95.34986869|Intersection 0 GULF FWY&1900 SAMPSON ST|2020-12-21 07:48:29.630|2020-12-21 13:19:19.793|2020-12-25 07:48:29.000|Flooding|12449256-101004455638                             
1|29.73816933|-95.29978078|7033 AVENUE E, HOUSTON TX 77011|2021-06-05 11:37:53.453|2021-06-05 12:31:05.167|2021-06-09 11:37:53.000|Flooding|12464900-101004714275                             
1|29.73818838|-95.32478828|5003 MCKINNEY, HOUSTON TX 77023|2021-05-24 15:29:54.937|2021-05-25 16:08:47.390|2021-05-28 15:29:54.000|Flooding|12462766-101004699189                             
1|29.73818838|-95.32478828|5003 MCKINNEY, HOUSTON TX 77023|2021-05-24 15:38:28.050|2021-05-26 13:02:47.877|2021-05-28 15:38:27.000|Flooding|12462774-101004699225                             
1|29.73853864|-95.40460994|3804 WOODHEAD, HOUSTON TX 77098|2020-08-24 00:06:30.613|2020-08-24 09:49:18.837|2020-08-28 00:06:30.000|Flooding|12438940-101004240356                             
1|29.73867543|-95.35145375|Intersection 0 GULF FWY&1600 VELASCO ST|2021-05-25 21:53:44.877|2021-05-26 05:08:47.487|2021-05-29 21:53:44.000|Flooding|12463181-101004701309                             
1|29.73900847|-95.36925971|2904 CHENEVERT, HOUSTON TX 77004|2020-09-10 15:55:22.030|2020-09-11 08:24:19.020|2020-09-14 15:55:21.000|Flooding|12440551-101004271552                             
1|29.73939605|-95.52698691|9200 WESTHEIMER, HOUSTON TX 77063|2020-12-05 09:00:36.290|2020-12-17 12:08:36.760|2020-12-09 09:00:36.000|Flooding|12447976-101004429137                             
1|29.7401505|-95.37286921|3025 AUSTIN, HOUSTON TX 77004|2021-02-21 23:07:10.260|2021-02-21 23:34:18.977|2021-02-25 23:07:10.000|Flooding|12454136-101004565446                             
1|29.74015612|-95.37313085|Intersection 3100 AUSTIN ST&1400 ROSALIE ST|2021-02-26 16:26:33.790|2021-03-19 15:50:46.337|2021-03-02 16:26:33.000|Flooding|12454464-101004574621                             
1|29.7401741|-95.38875803|3601 STANFORD, HOUSTON TX 77006|2021-02-04 10:44:35.660|2021-02-08 08:49:21.730|2021-02-08 10:44:35.000|Flooding|12453121-101004514620                             
1|29.74017538|-95.39734024|3607 MULBERRY, HOUSTON TX 77006|2021-05-24 12:00:21.100|2021-05-24 12:29:46.280|2021-05-28 12:00:20.000|Flooding|12462565-101004698576                             
1|29.74041553|-95.3975067|Intersection 1500 KIPLING ST&3600 MULBERRY ST|2021-06-22 20:01:18.077|2021-06-23 11:59:24.547|2021-06-26 20:01:17.000|Flooding|12467246-101004766085                             
1|29.74126433|-95.39752199|Intersection 1500 HAROLD ST&3500 MULBERRY ST|2021-03-22 21:16:22.517|2021-03-23 12:34:20.920|2021-03-26 21:16:22.000|Flooding|12456296-101004613283                             
1|29.74141949|-95.34438622|3518 POLK, HOUSTON TX 77003|2021-02-12 17:00:53.830|2021-02-19 12:14:20.043|2021-02-16 17:00:53.000|Flooding|12453833-101004543844                             
1|29.74166476|-95.43379974|Intersection 2600 EDLOE ST&3600 WESTHEIMER RD|2021-02-11 17:14:29.243|2021-02-12 10:39:21.553|2021-02-15 17:14:29.000|Flooding|12453746-101004542696                             
1|29.74174099|-95.39448109|3411 GRAUSTARK, HOUSTON TX 77006|2021-02-20 13:51:01.420|2021-02-21 20:44:19.273|2021-02-24 13:51:01.000|Flooding|12454074-101004563636                             
1|29.74180425|-95.36900842|2619 CRAWFORD, HOUSTON TX 77004|2021-02-18 23:08:21.030|2021-02-19 00:24:19.583|2021-02-22 23:08:20.000|Flooding|12454012-101004560361                             
1|29.74195719|-95.2979456|1014 WOODING, HOUSTON TX 77011|2021-02-20 14:57:27.310|2021-02-20 15:14:18.943|2021-02-24 14:57:27.000|Flooding|12454080-101004563782                             
1|29.74252363|-95.38738791|620 HAWTHORNE, HOUSTON TX 77006|2020-07-13 00:06:27.137|2020-07-13 00:29:18.673|2020-07-17 00:06:26.000|Flooding|12434612-101004147337                             
1|29.74255182|-95.40738487|1905 WESTHEIMER, HOUSTON TX 77098|2021-03-11 19:02:32.450|2021-03-19 15:29:06.357|2021-03-15 19:02:32.000|Flooding|12455440-101004591572                             
1|29.74294352|-95.33884838|3923 MCKINNEY, HOUSTON TX 77023|2020-07-26 15:31:05.427|2020-07-27 11:19:19.520|2020-07-30 15:31:05.000|Flooding|12435991-101004185181                             
1|29.74299535|-95.40183314|1660 WESTHEIMER, HOUSTON TX 77006|2021-03-09 23:07:18.110|2021-03-19 15:30:58.217|2021-03-13 23:07:17.000|Flooding|12455259-101004588629                             
1|29.74301887|-95.40750638|1902 WESTHEIMER, HOUSTON TX 77019|2020-11-02 19:15:26.740|2020-11-03 11:54:19.790|2020-11-06 19:15:26.000|Flooding|12445758-101004385742                             
1|29.74321145|-95.56665205|10727 OLYMPIA, HOUSTON TX 77042|2020-07-28 12:42:00.663|2020-07-29 11:54:19.057|2020-08-01 12:42:00.000|Flooding|12436229-101004187724                             
1|29.74324748|-95.3947537|1203 LOVETT, HOUSTON TX 77006|2021-04-21 20:15:39.350|2021-04-22 07:24:22.080|2021-04-25 20:15:39.000|Flooding|12459020-101004650267                             
1|29.74324748|-95.3947537|1203 LOVETT, HOUSTON TX 77006|2021-04-24 20:00:14.487|2021-04-24 20:11:31.143|2021-04-28 20:00:14.000|Flooding|12459242-101004653483                             
1|29.74341213|-95.26359571|Intersection 1200 DEFENDER ST&100 MISSISSIPPI ST|2021-05-25 08:23:32.463|2021-05-26 17:28:48.030|2021-05-29 08:23:32.000|Flooding|12462955-101004699898                             
1|29.74354174|-95.26615896|Intersection 1400 E LOOP FWY N&9052 MISSISSIPPI ST|2021-06-02 09:36:25.957|2021-06-02 10:16:54.533|2021-06-06 09:36:25.000|Flooding|12464283-101004709375                             
1|29.7437096|-95.56639926|10722 OLYMPIA, HOUSTON TX 77042|2020-08-22 16:57:11.290|2020-08-24 08:29:19.717|2020-08-26 16:57:10.000|Flooding|12438842-101004229792                             
1|29.7437096|-95.56639926|10722 OLYMPIA, HOUSTON TX 77042|2020-09-22 07:15:45.507|2020-09-22 07:16:37.990|2020-09-26 07:15:45.000|Flooding|101004284334                                      
1|29.74391292|-95.39779282|1701 MISSOURI, HOUSTON TX 77006|2021-03-02 09:30:55.900|2021-03-19 15:47:42.630|2021-03-06 09:30:55.000|Flooding|12454659-101004578168                             
1|29.74393849|-95.26710082|9035 MISSISSIPPI, HOUSTON TX 77029|2020-12-02 10:53:18.330|2020-12-17 12:11:48.437|2020-12-06 10:53:18.000|Flooding|12447691-101004425738                             
1|29.74395433|-95.39301026|3230 YOAKUM, HOUSTON TX 77006|2021-02-20 15:30:55.610|2021-02-21 20:54:20.093|2021-02-24 15:30:55.000|Flooding|12454087-101004563855                             
1|29.74409513|-95.40684179|2417 HAZARD, HOUSTON TX 77019|2020-09-21 00:06:24.537|2020-09-21 00:59:19.633|2020-09-25 00:06:24.000|Flooding|12441467-101004282736                             
1|29.74428496|-95.39109205|3207 MONTROSE, HOUSTON TX 77006|2021-04-16 01:00:42.147|2021-04-16 01:29:22.510|2021-04-20 01:00:41.000|Flooding|12458575-101004643560                             
1|29.74445922|-95.30089567|Intersection 6900 NAVIGATION BLVD&1300 SSGT MACARIO GARCIA D|2020-12-03 07:46:26.510|2020-12-17 12:12:34.373|2020-12-07 07:46:26.000|Flooding|12447774-101004426571                             
1|29.74445922|-95.30089567|Intersection 6900 NAVIGATION BLVD&1300 SSGT MACARIO GARCIA D|2021-02-12 16:08:41.027|2021-02-22 08:39:19.427|2021-02-16 16:08:40.000|Flooding|12453821-101004543747                             
1|29.74448206|-95.40470799|2402 WOODHEAD, HOUSTON TX 77019|2021-06-05 11:15:23.260|2021-06-05 12:02:05.350|2021-06-09 11:15:23.000|Flooding|12464899-101004714263                             
1|29.74453477|-95.40755702|1985 FAIRVIEW, HOUSTON TX 77019|2020-08-10 00:06:05.453|2020-08-18 12:42:39.177|2020-08-14 00:06:05.000|Flooding|12437480-101004202693                             
1|29.74457391|-95.40445039|1925 C FAIRVIEW, HOUSTON TX 77019|2021-03-28 11:15:45.923|2021-03-28 11:39:20.520|2021-04-01 11:15:45.000|Flooding|12456853-101004620217                             
1|29.74466922|-95.26616581|1415 E LOOP N, HOUSTON TX 77029|2020-12-02 23:06:11.793|2020-12-17 12:11:25.513|2020-12-06 23:06:11.000|Flooding|12447763-101004426465                             
1|29.74497879|-95.41412727|2212 FAIRVIEW, HOUSTON TX 77019|2021-02-26 23:07:29.613|2021-03-19 15:49:54.587|2021-03-02 23:07:29.000|Flooding|12454484-101004574911                             
1|29.74510765|-95.30289468|Intersection 6800 NAVIGATION BLVD&1300 WAYSIDE DR|2020-12-31 13:04:48.470|2021-01-04 15:34:20.540|2021-01-04 13:04:48.000|Flooding|12450083-101004466101                             
1|29.74694037|-95.61263723|12850 WHITTINGTON, HOUSTON TX 77077|2021-02-18 23:38:38.697|2021-02-22 12:39:20.047|2021-02-22 23:38:38.000|Flooding|12454017-101004560405                             
1|29.74708311|-95.39491405|1400 HYDE PARK, HOUSTON TX 77006|2021-02-26 23:07:31.990|2021-03-19 15:49:54.430|2021-03-02 23:07:31.000|Flooding|12454485-101004574912                             
1|29.74735233|-95.38233921|202 TUAM, HOUSTON TX 77006|2021-03-25 18:01:13.763|2021-03-26 11:44:20.787|2021-03-29 18:01:13.000|Flooding|12456679-101004617806                             
1|29.74749755|-95.53844448|Intersection 9700 BRIAR FOREST DR&1800 S GESSNER RD|2021-05-24 12:08:11.290|2021-05-24 14:51:46.463|2021-05-28 12:08:10.000|Flooding|12462577-101004698599                             
1|29.74749755|-95.53844448|Intersection 9700 BRIAR FOREST DR&1800 S GESSNER RD|2021-05-24 14:58:38.310|2021-05-25 17:40:47.280|2021-05-28 14:58:38.000|Flooding|12462725-101004699090                             
1|29.74778126|-95.39302156|2408 YOAKUM, HOUSTON TX 77006|2021-06-17 09:31:15.140|2021-06-17 14:12:24.827|2021-06-21 09:31:14.000|Flooding|12466484-101004739303                             
1|29.74787166|-95.39865319|Intersection 1500 MICHIGAN ST&2150 YUPON ST|2021-02-18 09:57:22.263|2021-02-18 10:19:19.430|2021-02-22 09:57:22.000|Flooding|12453972-101004558305                             
1|29.74805414|-95.40533901|2001 MORSE, HOUSTON TX 77019|2021-02-20 16:00:57.737|2021-02-20 16:24:19.640|2021-02-24 16:00:57.000|Flooding|12454088-101004563911                             
1|29.74828089|-95.38278301|101 DREW, HOUSTON TX 77006|2020-12-29 23:05:35.870|2020-12-30 11:04:20.157|2021-01-02 23:05:35.000|Flooding|12449895-101004464147                             
1|29.74834367|-95.40356806|1923 ELMEN, HOUSTON TX 77019|2021-04-03 21:30:39.250|2021-04-05 08:19:21.670|2021-04-07 21:30:39.000|Flooding|12457361-101004627932                             
1|29.74838712|-95.3557934|2233 POLK, HOUSTON TX 77003|2021-02-18 23:08:54.560|2021-02-19 11:24:19.273|2021-02-22 23:08:54.000|Flooding|12454015-101004560381                             
1|29.74839791|-95.4188157|Intersection 2000 KIRBY DR&2900 SAN FELIPE ST|2021-03-17 13:19:00.180|2021-03-19 15:23:50.253|2021-03-21 13:19:00.000|Flooding|12455831-101004607495                             
1|29.74868199|-95.40691112|1911 HAZARD, HOUSTON TX 77019|2021-02-17 16:14:27.747|2021-02-17 16:19:47.263|2021-02-21 16:14:27.000|Flooding|101004547529                                      
1|29.74893776|-95.34747245|720 PAIGE, HOUSTON TX 77003|2020-09-22 08:18:08.127|2020-09-22 10:04:18.613|2020-09-26 08:18:07.000|Flooding|12441726-101004284421                             
1|29.74910937|-95.40977481|Intersection 1900 HULDY ST&2030 VERMONT ST|2020-09-22 07:04:23.150|2020-09-22 11:09:18.487|2020-09-26 07:04:23.000|Flooding|12441691-101004284324                             
1|29.74910937|-95.40977481|Intersection 1900 HULDY ST&2030 VERMONT ST|2020-12-13 13:15:23.270|2020-12-17 11:57:40.783|2020-12-17 13:15:22.000|Flooding|12448542-101004447961                             
1|29.74924555|-95.56744064|1310 WALNUT BEND, HOUSTON TX 77042|2021-02-11 16:12:03.263|2021-02-12 10:34:21.337|2021-02-15 16:12:03.000|Flooding|12453739-101004542604                             
1|29.74944079|-95.33731949|116 EVERTON, HOUSTON TX 77003|2021-03-24 12:08:15.620|2021-03-25 12:39:28.410|2021-03-28 12:08:15.000|Flooding|12456492-101004615577                             
1|29.74954168|-95.3956728|1227 W DREW, HOUSTON TX 77006|2020-12-19 23:05:30.090|2020-12-21 09:24:20.077|2020-12-23 23:05:30.000|Flooding|12449190-101004455064                             
1|29.74962115|-95.58524682|1739 S KIRKWOOD, HOUSTON TX 77077|2020-12-30 18:31:08.860|2020-12-31 05:29:20.143|2021-01-03 18:31:08.000|Flooding|12449992-101004465452                             
1|29.74990502|-95.32931627|130 CHRISTENSEN, HOUSTON TX 77003|2021-02-15 15:30:53.203|2021-02-15 15:59:26.410|2021-02-19 15:30:53.000|Flooding|12453906-101004545106                             
1|29.75049137|-95.39442493|1214A WELCH, HOUSTON TX 77006|2020-07-29 00:51:37.700|2020-07-29 02:34:18.440|2020-08-02 00:51:37.000|Flooding|12436342-101004188661                             
1|29.75054535|-95.47266816|5548 SAN FELIPE, HOUSTON TX 77056|2020-12-19 13:44:40.070|2020-12-21 09:04:20.357|2020-12-23 13:44:38.000|Flooding|12449133-101004454731                             
1|29.75061875|-95.40444036|1933 HADDON, HOUSTON TX 77019|2021-01-03 23:05:36.053|2021-01-03 23:54:20.880|2021-01-07 23:05:35.000|Flooding|12450234-101004468189                             
1|29.75099704|-95.38873427|1915 STANFORD, HOUSTON TX 77006|2020-12-13 13:04:17.417|2020-12-17 11:57:41.250|2020-12-17 13:04:17.000|Flooding|12448537-101004447938                             
1|29.75105618|-95.38840206|608 WILLARD, HOUSTON TX 77006|2021-01-09 08:58:22.513|2021-01-11 10:29:21.130|2021-01-13 08:58:22.000|Flooding|12450950-101004475880                             
1|29.75128118|-95.38282002|1535 COOK, HOUSTON TX 77006|2021-02-20 09:00:59.910|2021-02-20 09:29:20.130|2021-02-24 09:00:59.000|Flooding|12454064-101004563106                             
1|29.75221837|-95.39268055|1704 MONTROSE, HOUSTON TX 77006|2021-05-04 16:00:22.670|2021-05-04 16:30:27.003|2021-05-08 16:00:22.000|Flooding|12460156-101004665221                             
1|29.75320965|-95.58471091|1586 PRAIRIE GROVE, HOUSTON TX 77077|2021-06-20 09:43:23.173|2021-06-21 09:42:23.340|2021-06-24 09:43:23.000|Flooding|12466829-101004762627                             
1|29.75392152|-95.6061096|Intersection 12600 BRIAR FOREST DR&1420 S DAIRY ASHFORD RD|2021-05-24 14:36:59.687|2021-05-24 17:50:46.570|2021-05-28 14:36:59.000|Flooding|12462705-101004699025                             
1|29.75412623|-95.39772534|1415 WAUGH, HOUSTON TX 77019|2021-05-26 20:00:58.480|2021-05-27 10:44:49.027|2021-05-30 20:00:58.000|Flooding|12463465-101004702813                             
1|29.75415604|-95.50113673|Intersection 1200 S VOSS RD&6600 WOODWAY DR|2021-01-21 07:11:12.753|2021-01-21 07:44:21.010|2021-01-25 07:11:12.000|Flooding|12451825-101004498703                             
1|29.75451978|-95.36325161|1118 CAROLINE, HOUSTON TX 77002|2021-04-05 13:00:47.000|2021-04-05 13:14:21.127|2021-04-09 13:00:46.000|Flooding|12457442-101004628971                             
1|29.75455725|-95.3931538|1125 W BELL, HOUSTON TX 77019|2021-01-11 12:00:49.180|2021-01-14 11:39:20.843|2021-01-15 12:00:48.000|Flooding|12451008-101004477351                             
1|29.75463914|-95.35837431|1611 WALKER, HOUSTON TX 77010|2021-01-27 14:54:56.627|2021-01-27 14:57:16.097|2021-01-31 14:54:00.000|Flooding|101004506349                                      
1|29.75503061|-95.40263466|1907 CLAY, HOUSTON TX 77019|2021-04-24 07:15:45.820|2021-04-24 07:43:31.607|2021-04-28 07:15:45.000|Flooding|12459212-101004653113                             
1|29.75529098|-95.40023039|Intersection 1600 W CLAY ST&1100 ROCHOW ST|2020-07-17 11:29:54.810|2020-07-20 14:04:19.570|2020-07-21 11:29:54.000|Flooding|12435060-101004174698                             
1|29.75552348|-95.40213614|1213 DUNLAVY, HOUSTON TX 77019|2020-08-28 10:31:27.027|2020-08-28 10:59:18.963|2020-09-01 10:31:26.000|Flooding|12439530-101004246385                             
1|29.75568962|-95.3646392|Intersection 1100 FANNIN ST&1100 LAMAR ST|2021-06-28 09:04:02.663|                   NULL|2021-07-02 09:04:02.000|Flooding|12467795-101004771229                             
1|29.75578963|-95.37696186|1300 ARTHUR, HOUSTON TX 77019|2021-02-16 23:07:03.670|2021-02-16 23:22:59.663|2021-02-20 23:07:03.000|Flooding|440384-101004546507                               
1|29.75595536|-95.34567096|2501 COMMERCE, HOUSTON TX 77003|2020-08-24 00:09:06.867|2020-08-24 01:04:18.897|2020-08-28 00:09:06.000|Flooding|12438966-101004240414                             
1|29.7563223|-95.35548469|1701 TEXAS, HOUSTON TX 77002|2021-02-19 23:08:29.940|2021-02-20 00:29:20.487|2021-02-23 23:08:29.000|Flooding|12454056-101004562802                             
1|29.75661856|-95.40282269|1180 DUNLAVY, HOUSTON TX 77019|2021-03-29 16:02:34.743|2021-03-30 09:09:20.073|2021-04-02 16:01:00.000|Flooding|12456965-101004621578                             
1|29.75707393|-95.40229458|1001 DUNLAVY, HOUSTON TX 77019|2021-02-22 16:30:53.380|2021-03-19 16:30:59.830|2021-02-26 16:30:53.000|Flooding|12454184-101004567223                             
1|29.75727168|-95.39125826|1005 COLUMBUS, HOUSTON TX 77019|2021-06-16 18:30:19.880|2021-06-17 14:06:24.843|2021-06-20 18:30:19.000|Flooding|12466443-101004728824                             
1|29.75733614|-95.3623236|1122 RUSK, HOUSTON TX 77002|2021-01-28 13:18:56.547|2021-01-28 13:34:21.550|2021-02-01 13:17:00.000|Flooding|12452535-101004507463                             
1|29.75752447|-95.36545435|945 MCKINNEY, HOUSTON TX 77002|2021-02-18 23:05:53.847|2021-02-18 23:49:19.080|2021-02-22 23:05:53.000|Flooding|12454000-101004560276                             
1|29.75764093|-95.47100442|5443 LYNBROOK, HOUSTON TX 77056|2020-07-29 12:31:08.543|2020-07-30 14:44:18.653|2020-08-02 12:31:08.000|Flooding|12436405-101004189261                             
1|29.75774883|-95.40063782|3305 A W LAMAR, HOUSTON TX 77019|2020-10-05 00:06:44.993|2020-10-05 00:34:19.690|2020-10-09 00:06:44.000|Flooding|12443368-101004310754                             
1|29.75795544|-95.28094966|8225 CARGILL, HOUSTON TX 77029|2021-01-20 10:12:08.043|2021-01-22 12:54:21.067|2021-01-24 10:12:07.000|Flooding|12451740-101004497462                             
1|29.75810628|-95.56296353|211 BLUE WILLOW, HOUSTON TX 77042|2020-09-04 14:18:33.613|2020-09-04 15:15:56.273|2020-09-08 14:17:00.000|Flooding|101004265663                                      
1|29.75811285|-95.39828007|820 WAUGH, HOUSTON TX 77019|2021-02-19 23:06:46.063|2021-02-19 23:34:19.110|2021-02-23 23:06:45.000|Flooding|12454048-101004562744                             
1|29.75839724|-95.60856768|12625 BRIAR PATCH, HOUSTON TX 77077|2020-11-02 15:15:26.560|2020-11-02 16:09:19.420|2020-11-06 15:15:26.000|Flooding|12445742-101004385413                             
1|29.75986294|-95.27495845|8507 GUINEVERE, HOUSTON TX 77029|2021-01-28 11:21:26.170|2021-01-29 08:44:21.567|2021-02-01 11:21:25.000|Flooding|12452514-101004507217                             
1|29.76037902|-95.34585727|2260 ANN, HOUSTON TX 77003|2021-05-30 10:30:16.767|2021-05-30 11:10:51.447|2021-06-03 10:30:16.000|Flooding|12463972-101004706705                             
1|29.76148037|-95.40888975|Intersection 0 MEMORIAL SERVICE RD&2 SHEPHERD DR|2020-09-22 07:38:43.417|2020-09-22 13:49:19.680|2020-09-26 07:38:43.000|Flooding|12441703-101004284358                             
1|29.76198985|-95.41597551|5300 MEMORIAL, HOUSTON TX 77007|2020-09-23 10:40:37.853|2020-09-24 11:49:19.227|2020-09-27 10:40:37.000|Flooding|12442174-101004286361                             
1|29.76355358|-95.42197336|210 GLENWOOD, HOUSTON TX 77007|2021-02-23 23:06:07.007|2021-03-19 16:31:00.360|2021-02-27 23:06:06.000|Flooding|12454255-101004569661                             
1|29.76363302|-95.25539862|4204 FIDELITY, JACINTO CITY TX 77029|2020-09-04 08:30:21.133|2020-09-04 09:04:19.060|2020-09-08 08:30:21.000|Flooding|12440044-101004265045                             
1|29.76394295|-95.3723339|1500 MEMORIAL, HOUSTON TX 77007|2021-03-28 18:00:35.440|2021-03-28 18:14:20.770|2021-04-01 18:00:35.000|Flooding|12456868-101004620419                             
1|29.7643031|-95.36043555|Intersection 900 COMMERCE ST&2 TRAVIS ST|2020-09-22 17:11:38.927|2020-09-23 10:24:19.180|2020-09-26 17:10:00.000|Flooding|12441966-101004285490                             
1|29.7643031|-95.36043555|Intersection 900 COMMERCE ST&2 TRAVIS ST|2021-05-19 07:16:30.850|2021-05-19 10:23:40.203|2021-05-23 07:16:30.000|Flooding|12461628-101004682471                             
1|29.76435674|-95.36051932|Intersection 890 COMMERCE ST&100 TRAVIS ST|2020-09-22 07:38:51.417|2020-09-22 09:54:19.277|2020-09-26 07:38:51.000|Flooding|12441702-101004284359                             
1|29.76489063|-95.36425018|Intersection 500 CONGRESS ST&600 FRANKLIN ST|2020-07-27 17:50:37.020|2020-07-28 05:54:18.700|2020-07-31 17:48:00.000|Flooding|12436113-101004186703                             
1|29.76638641|-95.27260096|8602 BERNDALE, HOUSTON TX 77029|2021-05-20 07:57:42.587|2021-05-20 09:56:41.087|2021-05-24 07:57:42.000|Flooding|12461968-101004684081                             
1|29.76672743|-95.36069476|Intersection 100 GIRARD ST&6 TRAVIS ST|2021-05-19 08:20:26.313|2021-05-19 13:22:40.110|2021-05-23 08:18:00.000|Flooding|12461662-101004682573                             
1|29.76678285|-95.39248177|707 STUDEMONT, HOUSTON TX 77007|2020-10-06 10:16:09.383|2020-10-07 07:34:19.583|2020-10-10 10:16:09.000|Flooding|12443501-101004312727                             
1|29.76686382|-95.33391105|507 BRINGHURST, HOUSTON TX 77020|2020-12-13 14:30:37.043|2020-12-17 12:01:14.427|2020-12-17 14:30:36.000|Flooding|12448554-101004448009                             
1|29.76700835|-95.41363094|507 REINERMAN, HOUSTON TX 77007|2021-02-21 15:43:03.353|2021-02-22 14:09:19.440|2021-02-25 15:43:03.000|Flooding|12454122-101004565125                             
1|29.76730013|-95.27071584|8639 FANNETTE, HOUSTON TX 77029|2021-05-24 13:50:11.740|2021-05-24 17:32:46.450|2021-05-28 13:50:11.000|Flooding|12462664-101004698879                             
1|29.76735613|-95.34300235|Intersection 2600 BAER ST&2586 EAST FWY&650 JENSEN DR|2021-05-24 15:32:36.813|2021-05-25 08:23:46.667|2021-05-28 15:32:36.000|Flooding|12462767-101004699205                             
1|29.76772442|-95.39832924|34 A WAUGH, HOUSTON TX 77007|2021-02-24 23:07:22.090|2021-03-19 15:54:24.107|2021-02-28 23:07:21.000|Flooding|12454330-101004571747                             
1|29.76781284|-95.38139028|920 TAYLOR, HOUSTON TX 77007|2021-05-21 14:55:58.493|2021-05-22 08:15:44.227|2021-05-25 14:55:58.000|Flooding|12462275-101004696540                             
1|29.76789108|-95.32308997|4702 COKE, HOUSTON TX 77020|2020-07-15 01:01:10.893|2020-07-15 01:34:18.287|2020-07-19 01:01:10.000|Flooding|12434829-101004150978                             
1|29.76809647|-95.39734576|3706 RAYMOND, HOUSTON TX 77007|2021-03-10 23:08:11.510|2021-03-19 15:29:31.903|2021-03-14 23:08:11.000|Flooding|12455351-101004590112                             
1|29.76843325|-95.35632349|1101 PROVIDENCE, HOUSTON TX 77002|2021-05-24 12:43:20.497|2021-05-25 14:42:46.827|2021-05-28 12:43:20.000|Flooding|12462599-101004698682                             
1|29.76855862|-95.3367265|769 GROVE, HOUSTON TX 77020|2020-07-24 10:05:03.293|2020-07-27 10:59:18.790|2020-07-28 10:05:03.000|Flooding|12435760-101004183194                             
1|29.76855862|-95.3367265|769 GROVE, HOUSTON TX 77020|2020-08-03 00:31:08.460|2020-08-03 08:49:19.290|2020-08-07 00:31:08.000|Flooding|12436788-101004193778                             
1|29.76855862|-95.3367265|769 GROVE, HOUSTON TX 77020|2020-09-22 22:11:07.213|2020-09-23 12:44:18.810|2020-09-26 22:11:07.000|Flooding|12442027-101004285727                             
1|29.76886387|-95.38227563|2311 CENTER, HOUSTON TX 77007|2021-02-24 23:06:10.213|2021-03-19 15:54:24.480|2021-02-28 23:06:10.000|Flooding|12454321-101004571710                             
1|29.76979196|-95.35435277|1302 CONTI, HOUSTON TX 77002|2021-02-28 23:07:36.463|2021-03-19 15:49:55.680|2021-03-04 23:07:36.000|Flooding|12454579-101004576251                             
1|29.76989558|-95.61013951|14737 MEMORIAL, HOUSTON TX 77029|2021-02-19 23:06:19.987|2021-02-20 00:04:19.347|2021-02-23 23:06:19.000|Flooding|12454047-101004562730                             
1|29.77019494|-95.34345248|Intersection 2600 BUCK ST&1000 JENSEN DR|2020-12-20 02:15:55.843|2020-12-20 08:19:20.070|2020-12-24 02:15:55.000|Flooding|12449194-101004455077                             
1|29.77032701|-95.34367091|1015 JENSEN, HOUSTON TX 77020|2020-12-20 13:02:28.810|2020-12-20 13:14:20.870|2020-12-24 13:02:28.000|Flooding|12449212-101004455280                             
1|29.77033141|-95.41431648|924 LESTER, HOUSTON TX 77007|2020-12-14 18:15:35.530|2020-12-17 11:57:41.987|2020-12-18 18:15:35.000|Flooding|12448750-101004449582                             
1|29.77044235|-95.34471038|1039 MCCALL, HOUSTON TX 77020|2020-12-14 23:05:34.020|2020-12-17 11:56:43.860|2020-12-18 23:05:33.000|Flooding|12448755-101004449710                             
1|29.77064429|-95.41413454|5250 WASHINGTON, HOUSTON TX 77007|2020-12-22 23:06:12.513|2020-12-23 15:04:20.213|2020-12-26 23:06:12.000|Flooding|12449504-101004458077                             
1|29.77087401|-95.3434372|Intersection 1100 JENSEN DR&2700 PROVIDENCE ST|2021-05-28 08:05:51.197|2021-05-28 12:07:49.957|2021-06-01 08:05:51.000|Flooding|12463706-101004704499                             
1|29.77091344|-95.37670081|1818 EDWARDS, HOUSTON TX 77007|2021-02-20 09:15:50.590|2021-02-20 09:34:18.773|2021-02-24 09:15:50.000|Flooding|12454066-101004563132                             
1|29.77094208|-95.40460901|4313 CENTER, HOUSTON TX 77007|2020-12-01 23:06:09.697|2020-12-17 12:13:44.140|2020-12-05 23:06:09.000|Flooding|12447646-101004425313                             
1|29.77155875|-95.19519816|Intersection 0 EAST FWY&1194 WESTMONT DR|2020-12-31 14:56:05.417|2021-01-04 07:09:20.890|2021-01-04 14:56:05.000|Flooding|12450117-101004466309                             
1|29.77157793|-95.30770546|934 KRESS, HOUSTON TX 77020|2021-05-24 16:54:20.540|2021-05-24 18:21:46.523|2021-05-28 16:54:20.000|Flooding|12462839-101004699450                             
1|29.77189437|-95.20224753|Intersection 1000 DWIGHT ST&0 EAST FWY|2020-09-22 11:17:34.337|2020-09-23 12:39:19.603|2020-09-26 11:17:34.000|Flooding|12441834-101004284807                             
1|29.77198194|-95.37525844|1709 WINTER, HOUSTON TX 77007|2021-02-24 13:01:02.943|2021-03-19 15:59:22.547|2021-02-28 13:01:02.000|Flooding|12454292-101004570740                             
1|29.77327482|-95.40568006|4415 ELI, HOUSTON TX 77007|2021-02-19 23:05:59.720|2021-02-19 23:39:19.253|2021-02-23 23:05:59.000|Flooding|12454043-101004562720                             
1|29.77333422|-95.54237506|12203 TAYLORCREST, HOUSTON TX 77024|2021-01-30 23:05:30.080|2021-01-30 23:24:21.223|2021-02-03 23:05:29.000|Flooding|12452723-101004509814                             
1|29.77335277|-95.40604465|4425 ELI, HOUSTON TX 77007|2021-02-20 23:05:50.910|2021-02-21 00:04:19.900|2021-02-24 23:05:50.000|Flooding|12454110-101004564377                             
1|29.773861|-95.31515506|Intersection 5500 EAST FWY&1376 LOCKWOOD DR|2020-09-21 07:16:07.180|2020-09-21 09:39:19.340|2020-09-25 07:16:06.000|Flooding|12441485-101004282836                             
1|29.7747989|-95.39714081|216 HEIGHTS, HOUSTON TX 77007|2021-04-08 12:25:34.773|2021-04-08 14:12:18.100|2021-04-12 12:25:34.000|Flooding|101004633977                                      
1|29.7748296|-95.42206079|1603 COHN, HOUSTON TX 77007|2020-07-17 11:14:35.783|2020-07-20 15:19:18.797|2020-07-21 11:14:35.000|Flooding|12435057-101004174667                             
1|29.77498708|-95.37265068|1919 HOUSTON TX 77007|2021-02-27 09:01:20.583|2021-03-19 15:49:25.883|2021-03-03 09:01:20.000|Flooding|12454498-101004575025                             
1|29.77500727|-95.42206895|1607 COHN, HOUSTON TX 77007|2020-07-17 17:43:03.940|2020-07-20 15:24:18.753|2020-07-21 17:43:03.000|Flooding|12435130-101004175525                             
1|29.77540558|-95.37147655|1402 A SPRING, HOUSTON TX 77007|2021-02-28 23:06:49.497|2021-03-19 15:49:26.617|2021-03-04 23:06:49.000|Flooding|12454573-101004576225                             
1|29.7754196|-95.34985745|1521 MAURY, HOUSTON TX 77026|2021-02-12 17:00:53.330|2021-02-14 16:29:27.483|2021-02-16 17:00:53.000|Flooding|12453832-101004543843                             
1|29.7758539|-95.42228373|6003 HAMMAN, HOUSTON TX 77007|2021-06-29 06:30:25.723|                   NULL|2021-07-03 06:30:25.000|Flooding|12467936-101004771407                             
1|29.77595226|-95.42349477|1721 C UTAH, HOUSTON TX 77007|2021-01-11 23:06:01.813|2021-01-15 08:04:27.410|2021-01-15 23:06:01.000|Flooding|12451056-101004478131                             
1|29.77614392|-95.54413589|12231 KIMBERLEY, HOUSTON TX 77024|2021-04-08 12:37:11.883|2021-04-13 14:09:21.910|2021-04-12 12:37:11.000|Flooding|12457908-101004634225                             
1|29.77717597|-95.56730581|719 WAX MYRTLE, HOUSTON TX 77079|2021-05-24 11:17:28.607|2021-05-25 08:20:46.773|2021-05-28 11:17:28.000|Flooding|12462532-101004698472                             
1|29.77723203|-95.36364673|414 BISHOP, HOUSTON TX 77009|2021-05-04 08:13:10.440|2021-05-04 08:21:26.597|2021-05-08 08:13:10.000|Flooding|12460066-101004664147                             
1|29.77763563|-95.61888802|777 N ELDRIDGE, HOUSTON TX 77079|2021-02-20 09:01:06.317|2021-02-20 09:34:18.790|2021-02-24 09:01:06.000|Flooding|12454065-101004563109                             
1|29.77781684|-95.19898993|Intersection 500 MAPLE WAY&700 WESTMONT DR|2020-09-22 07:32:13.613|2020-09-22 12:54:19.300|2020-09-26 07:32:13.000|Flooding|12441697-101004284348                             
1|29.77796096|-95.42441793|5701 CORNISH, HOUSTON TX 77007|2021-02-20 15:15:53.413|2021-02-20 15:39:19.083|2021-02-24 15:15:53.000|Flooding|12454083-101004563823                             
1|29.77796096|-95.42441793|5701 CORNISH, HOUSTON TX 77007|2021-02-20 21:15:49.020|2021-02-20 21:29:19.323|2021-02-24 21:15:48.000|Flooding|12454101-101004564303                             
1|29.77796096|-95.42441793|5701 CORNISH, HOUSTON TX 77007|2021-02-20 23:05:47.627|2021-02-20 23:59:19.477|2021-02-24 23:05:47.000|Flooding|12454108-101004564375                             
1|29.77818697|-95.35073637|1724 LORRAINE, HOUSTON TX 77026|2021-06-17 05:15:27.203|2021-06-17 15:15:25.073|2021-06-21 05:15:27.000|Flooding|12466465-101004739016                             
1|29.77823069|-95.54867991|12414 BARRYKNOLL, HOUSTON TX 77024|2021-02-12 15:51:43.947|2021-02-22 08:49:18.680|2021-02-16 15:51:43.000|Flooding|12453814-101004543708                             
1|29.77833525|-95.34154603|1820 JENSEN, HOUSTON TX 77026|2021-03-08 23:06:33.850|2021-03-19 15:35:54.503|2021-03-12 23:06:33.000|Flooding|12455177-101004587076                             
1|29.77892688|-95.28404996|Intersection 8100 HERSHE ST&600 MCCARTY|2021-05-24 13:54:06.647|2021-05-24 17:37:46.420|2021-05-28 13:54:06.000|Flooding|12462666-101004698888                             
1|29.7793054|-95.38146772|2223 WHITE OAK, HOUSTON TX 77007|2021-03-20 15:00:32.963|2021-03-22 09:19:20.900|2021-03-24 15:00:32.000|Flooding|12456106-101004611022                             
1|29.77998022|-95.59905657|14363 MISTY MEADOW, HOUSTON TX 77079|2020-08-19 01:19:31.640|2020-08-19 11:59:18.887|2020-08-23 01:19:31.000|Flooding|12438351-101004224619                             
1|29.78105344|-95.43821714|Intersection 0 HEMPSTEAD RD&6800 KATY RD&0 WASHINGTON AVE|2020-12-30 16:52:28.727|2020-12-31 05:09:20.173|2021-01-03 16:52:28.000|Flooding|12449987-101004465388                             
1|29.78105344|-95.43821714|Intersection 0 HEMPSTEAD RD&6800 KATY RD&0 WASHINGTON AVE|2020-12-31 12:16:28.507|2021-01-04 11:24:20.717|2021-01-04 12:16:28.000|Flooding|12450047-101004466009                             
1|29.7812175|-95.43774418|Intersection 0 HEMPSTEAD RD&6700 KATY RD|2020-12-13 14:04:46.033|2020-12-17 11:57:39.970|2020-12-17 14:04:45.000|Flooding|12448549-101004447995                             
1|29.78171683|-95.42862154|5849 KANSAS, HOUSTON TX 77007|2020-12-22 11:15:39.863|2020-12-22 11:34:19.897|2020-12-26 11:15:39.000|Flooding|12449444-101004457246                             
1|29.78228036|-95.4151823|5200 KANSAS, HOUSTON TX 77007|2020-09-22 10:47:42.683|2020-09-22 18:04:18.960|2020-09-26 10:47:42.000|Flooding|12441817-101004284733                             
1|29.78355343|-95.40074873|710 RUTLAND, HOUSTON TX 77007|2020-07-16 00:06:14.790|2020-07-16 00:39:19.470|2020-07-20 00:06:14.000|Flooding|12434941-101004172554                             
1|29.7841947|-95.45128493|1000 A W LOOP N, HOUSTON TX 77055|2021-02-19 23:08:15.270|2021-02-20 00:24:20.373|2021-02-23 23:08:15.000|Flooding|12454055-101004562793                             
1|29.78456132|-95.53959363|9926 KATY, HOUSTON TX 77055|2021-02-18 23:08:09.013|2021-02-19 00:24:19.537|2021-02-22 23:08:08.000|Flooding|12454010-101004560354                             
1|29.78456204|-95.43139563|6602 EUREKA, HOUSTON TX 77008|2021-06-15 10:04:08.937|2021-06-15 12:38:22.317|2021-06-19 10:04:08.000|Flooding|12466158-101004726226                             
1|29.78497712|-95.38652508|1112 EUCLID, HOUSTON TX 77009|2021-01-02 23:06:59.023|2021-01-04 09:04:20.167|2021-01-06 23:06:58.000|Flooding|12450198-101004467637                             
1|29.7850019|-95.39803844|745 HEIGHTS, HOUSTON TX 77007|2021-06-22 08:16:48.340|2021-06-22 14:24:23.567|2021-06-26 08:16:48.000|Flooding|12467071-101004764624                             
1|29.78521917|-95.22602855|Intersection 540 WOOD MIST DR&11900 WOODFOREST BLVD|2021-05-24 15:07:10.610|2021-05-24 17:55:46.417|2021-05-28 15:07:10.000|Flooding|12462737-101004699119                             
1|29.7853967|-95.39840748|115 W 8TH, HOUSTON TX 77007|2021-05-19 07:41:21.710|2021-05-19 11:53:40.227|2021-05-23 07:41:21.000|Flooding|12461640-101004682506                             
1|29.78592305|-95.51955525|1010 ADKINS, SPRING VALLEY TX 77055|2020-09-02 13:17:08.820|2020-09-03 07:29:19.110|2020-09-06 13:17:08.000|Flooding|12439874-101004252033                             
1|29.7859428|-95.64480474|Intersection 14700 OLD KATY RD&332 N SH 6|2020-12-19 12:00:24.880|2020-12-22 09:39:20.697|2020-12-23 12:00:24.000|Flooding|12449273-101004454596                             
1|29.78632904|-95.33809306|3106 KENTUCKY, HOUSTON TX 77026|2021-02-21 14:03:58.253|2021-02-22 08:39:19.457|2021-02-25 14:03:58.000|Flooding|12454119-101004565009                             
1|29.78632904|-95.33809306|3106 KENTUCKY, HOUSTON TX 77026|2021-02-25 12:47:45.140|2021-03-19 15:54:25.137|2021-03-01 12:47:45.000|Flooding|12454363-101004572645                             
1|29.78759335|-95.46928613|6823 NORTHAMPTON, HOUSTON TX 77055|2020-11-29 11:30:39.890|2020-11-30 10:09:29.110|2020-12-03 11:30:39.000|Flooding|12447426-101004422423                             
1|29.78787875|-95.38190595|826 OMAR, HOUSTON TX 77009|2021-05-01 09:35:13.087|2021-05-02 22:27:36.180|2021-05-05 09:35:12.000|Flooding|12459832-101004661414                             
1|29.78862868|-95.39227737|941 OXFORD, HOUSTON TX 77008|2021-06-22 10:37:25.370|2021-06-23 15:10:24.790|2021-06-26 10:37:25.000|Flooding|12467122-101004765011                             
1|29.7887298|-95.38915987|716 E 10TH, HOUSTON TX 77008|2021-04-20 14:30:48.420|2021-04-22 07:44:22.600|2021-04-24 14:30:48.000|Flooding|12458889-101004648329                             
1|29.78890872|-95.439334|3518 URBAN WOODS, HOUSTON TX 77008|2020-08-24 00:09:11.070|2020-08-24 08:29:19.687|2020-08-28 00:09:10.000|Flooding|12438967-101004240415                             
